DBA Name,Address,Latitude,Longitude,Community,IS_REAL_GROCERY,geometry
Food 4 Less #570,112 W 87Th St,41.7363800455882,-87.6275092190256,CHATHAM,False,POINT (-87.6275092190256 41.7363800455882)
County Fair Foods,10800 S Western Ave,41.6972382087802,-87.6814748041818,MORGAN PARK,False,POINT (-87.6814748041818 41.6972382087802)
Oh Hen Mart,9053 S Stony Island Ave,41.7298949621823,-87.5849087422939,CALUMET HEIGHTS,False,POINT (-87.5849087422939 41.7298949621823)
Evolve By Hudson,5700 S Cicero Ave,41.7893293232654,-87.7416456441964,GARFIELD RIDGE,False,POINT (-87.7416456441964 41.7893293232654)
Khi'S Grocery And Mini Mart,4115-17 W Roosevelt Rd,41.8660171486125,-87.7283152964801,NORTH LAWNDALE,False,POINT (-87.7283152964801 41.8660171486125)
E & J Food & Liquors,5439 S Damen Ave,41.7945855107177,-87.6741748924585,NEW CITY,False,POINT (-87.6741748924585 41.7945855107177)
"A&A Fresh Food Market, Ltd.",4855 S Ashland Ave,41.8051694700821,-87.6647309850293,NEW CITY,False,POINT (-87.6647309850293 41.8051694700821)
Reemy'S Food Grill & Tobacco,8701 S Cottage Grove Ave,41.7366060780321,-87.6046750609248,CHATHAM,False,POINT (-87.6046750609248 41.7366060780321)
Gangnam Market,1001 W Chicago Ave,41.8961983285802,-87.6526797277004,WEST TOWN,False,POINT (-87.6526797277004 41.8961983285802)
Falcon Fuel / Sals Philly And Seafood,7100-7114 S Vincennes Ave,41.7654659278609,-87.6280736816003,GREATER GRAND CROSSING,False,POINT (-87.6280736816003 41.7654659278609)
Western Food Mart,7052 S Western Ave,41.7649594967238,-87.6833957006477,CHICAGO LAWN,False,POINT (-87.6833957006477 41.7649594967238)
Dulceria Velasco,2731 W 59Th St,41.7863186719278,-87.6923116055893,CHICAGO LAWN,False,POINT (-87.6923116055893 41.7863186719278)
"79 Food & Deli, Inc.",343 E 79Th St,41.750982043915,-87.6164554849679,CHATHAM,False,POINT (-87.6164554849679 41.750982043915)
Sam 95 Food Inc,1452 W 95Th St,41.7213568596737,-87.6599616802764,WASHINGTON HEIGHTS,False,POINT (-87.6599616802764 41.7213568596737)
Lawrence Food & Deli,1113 W Lawrence Ave,41.9689355714895,-87.6582007180482,UPTOWN,False,POINT (-87.6582007180482 41.9689355714895)
59Th Street Food Mart,33 E 59Th St,41.7872769637555,-87.6241380031761,WASHINGTON PARK,False,POINT (-87.6241380031761 41.7872769637555)
63Rd Street Food Mart,6359 S Dr Martin Luther King Jr Dr,41.778490647369,-87.6154378195282,WOODLAWN,False,POINT (-87.6154378195282 41.778490647369)
Star Farm Chicago,5256 S Ashland,41.7978189145709,-87.6648302194387,NEW CITY,False,POINT (-87.6648302194387 41.7978189145709)
Hyde Park Bp Am Pm,5130 S Lake Park Ave,41.801456552461,-87.5877418621558,HYDE PARK,False,POINT (-87.5877418621558 41.801456552461)
7-Eleven #33698J,6401 N Sheridan Rd,41.9983088063897,-87.6596963832564,ROGERS PARK,False,POINT (-87.6596963832564 41.9983088063897)
Sacramento Three Brothers,603 S Sacramento Blvd,41.8736351475448,-87.7008622377332,EAST GARFIELD PARK,False,POINT (-87.7008622377332 41.8736351475448)
El Progresso,3937 W 31St St,41.8367884830205,-87.7233568547893,SOUTH LAWNDALE,False,POINT (-87.7233568547893 41.8367884830205)
Division Quick Mart,5652 W Division St,41.902221624326,-87.7677718454794,AUSTIN,False,POINT (-87.7677718454794 41.902221624326)
Supermercado La Tortilla,5915-5919 S Western Ave,41.7860640549239,-87.6836735423631,CHICAGO LAWN,False,POINT (-87.6836735423631 41.7860640549239)
7 Seas Food & Meat Mart #3 Inc,6501 S Cottage Grove Ave,41.7766888361163,-87.6057003492933,WOODLAWN,False,POINT (-87.6057003492933 41.7766888361163)
Red Apple Food & Liquor Inc,317 E 51St St,41.8019546465485,-87.6186829574225,WASHINGTON PARK,False,POINT (-87.6186829574225 41.8019546465485)
Green Line Food Mart,7701 S Racine Ave,41.7540479040719,-87.6536852177273,AUBURN GRESHAM,False,POINT (-87.6536852177273 41.7540479040719)
Los Cuates Mercado,4531-4535 W Marquette Rd,41.7711072684816,-87.7359157141494,WEST LAWN,False,POINT (-87.7359157141494 41.7711072684816)
Fairplay Finer Food,2200 S Western Ave,41.8519838395733,-87.6857857042053,LOWER WEST SIDE,False,POINT (-87.6857857042053 41.8519838395733)
Lalich Delicatessen,4208 W Lawrence Ave,41.9682906022065,-87.7333728325857,ALBANY PARK,False,POINT (-87.7333728325857 41.9682906022065)
Hermosa Bodega,4100 W North Ave,41.9099608832475,-87.728874960377,HUMBOLDT PARK,False,POINT (-87.728874960377 41.9099608832475)
Harvest Food,4949 N Elston Ave,41.9706513987566,-87.7440612416149,ALBANY PARK,False,POINT (-87.7440612416149 41.9706513987566)
Chi Town Food & Liquor,5002 N Pulaski Rd,41.9720310369443,-87.728282270549,NORTH PARK,False,POINT (-87.728282270549 41.9720310369443)
Marathon Gas,3000 W 63Rd St,41.7791524505009,-87.6983306151684,CHICAGO LAWN,False,POINT (-87.6983306151684 41.7791524505009)
"Tasty Spot Food & Grill On 67, Inc.",1508 E 67Th St,41.773422815696,-87.5883368693424,WOODLAWN,False,POINT (-87.5883368693424 41.773422815696)
Fairplay Foods,4640 S Halsted St,41.809629768022,-87.6457075651288,NEW CITY,False,POINT (-87.6457075651288 41.809629768022)
"Jola & Hetman Deli, Ltd.",5513 W Belmont Ave,41.9384895513741,-87.764577225216,BELMONT CRAGIN,False,POINT (-87.764577225216 41.9384895513741)
Heart Of Middle East Mart Inc.,3526 N Halsted St,41.9462132276784,-87.6495991200709,LAKE VIEW,False,POINT (-87.6495991200709 41.9462132276784)
Dollar General Store #25059,1425 E 71St St,41.7658596705207,-87.5900148847121,SOUTH SHORE,False,POINT (-87.5900148847121 41.7658596705207)
94 Food And Tobacco,7057 S Wentworth Ave,41.7655849953589,-87.6296287798632,GREATER GRAND CROSSING,False,POINT (-87.6296287798632 41.7655849953589)
F0 Group Llc,30 N La Salle St,41.8826946686112,-87.6325314266606,LOOP,False,POINT (-87.6325314266606 41.8826946686112)
Neighborhood Deli-Groc,9001-9003 S Ashland Ave,41.730209339333,-87.6627536829885,WASHINGTON HEIGHTS,False,POINT (-87.6627536829885 41.730209339333)
"Kw Food Mart,Inc.",9249-9253 S Halsted St,41.725487429172,-87.643173591284,WASHINGTON HEIGHTS,False,POINT (-87.643173591284 41.725487429172)
Moe'S Food & Deli Inc.,3959 W Roosevelt Rd,41.8660632606992,-87.7251065164844,NORTH LAWNDALE,False,POINT (-87.7251065164844 41.8660632606992)
Avers Express Food Llc,3825 W Chicago Ave,41.8952920844304,-87.7223493894229,HUMBOLDT PARK,False,POINT (-87.7223493894229 41.8952920844304)
Handy Spot,200 E 35Th St,41.8311694823242,-87.6217052088359,DOUGLAS,False,POINT (-87.6217052088359 41.8311694823242)
Celina Deli,5089 S Archer Ave,41.8008140452698,-87.7284096829351,ARCHER HEIGHTS,False,POINT (-87.7284096829351 41.8008140452698)
Super Leon,9800 S Avenue L,41.7176287308732,-87.53663822715,EAST SIDE,False,POINT (-87.53663822715 41.7176287308732)
Gopuff,3118 N Harlem Ave,41.9369515972434,-87.8068573205792,DUNNING,False,POINT (-87.8068573205792 41.9369515972434)
Buenos Aires Liquor & Deli,3100 N Cicero Ave,41.9370448479592,-87.7469641253986,BELMONT CRAGIN,False,POINT (-87.7469641253986 41.9370448479592)
Lil Sams Mini Mart,3753 W Division St,41.9026057850102,-87.7210949282073,HUMBOLDT PARK,False,POINT (-87.7210949282073 41.9026057850102)
Bucktown Food & Liquor,2422 W Fullerton Ave,41.9250025218478,-87.6885710066666,LOGAN SQUARE,False,POINT (-87.6885710066666 41.9250025218478)
J J Mini Store,3343 N Pulaski Rd,41.9422241656108,-87.7271320000302,AVONDALE,False,POINT (-87.7271320000302 41.9422241656108)
Kurowski Sausage Shop & Rich,2976-2978 N Milwaukee Ave,41.9353055522412,-87.7178601061768,AVONDALE,False,POINT (-87.7178601061768 41.9353055522412)
Afc Sushi @ Jewel Osco # 2940,2940 N Ashland Ave,41.9354720327317,-87.6686545431426,LAKE VIEW,False,POINT (-87.6686545431426 41.9354720327317)
Rahman Holdings Inc,3601 W Grand Ave,41.9021685749928,-87.7166762957705,HUMBOLDT PARK,False,POINT (-87.7166762957705 41.9021685749928)
Bockwinkel'S,155 N Harbor Dr,41.8847505384994,-87.6156039564725,LOOP,False,POINT (-87.6156039564725 41.8847505384994)
76,119-133 S Cicero Bldg,41.8785715423974,-87.745060013603,AUSTIN,False,POINT (-87.745060013603 41.8785715423974)
Twinspot,447 E 63Rd St,41.7801615764959,-87.6138051305085,WOODLAWN,False,POINT (-87.6138051305085 41.7801615764959)
Zee'S Food Market Inc.,1759 W 79Th St,41.7501833075773,-87.6682288515575,AUBURN GRESHAM,False,POINT (-87.6682288515575 41.7501833075773)
Foodsmart,2901 W Armitage Ave,41.917358545106,-87.699341068678,LOGAN SQUARE,False,POINT (-87.699341068678 41.917358545106)
"Everyday Food Mart, Inc.",1006 W Lake St,41.885687946891,-87.6524644463094,NEAR WEST SIDE,False,POINT (-87.6524644463094 41.885687946891)
Laramie Bakery & Deli,3012-3014 N Laramie Ave,41.9354465712877,-87.7567187137181,BELMONT CRAGIN,False,POINT (-87.7567187137181 41.9354465712877)
"Chicago Light Food Mart, Inc.",4801 W Chicago Ave,41.8948927214182,-87.7459270239488,AUSTIN,False,POINT (-87.7459270239488 41.8948927214182)
Bockwinkels,222 N Columbus Dr,41.8863394160112,-87.6208361499565,LOOP,False,POINT (-87.6208361499565 41.8863394160112)
Paulina Market,3501 N Lincoln Ave,41.9452541583595,-87.6723897931988,LAKE VIEW,False,POINT (-87.6723897931988 41.9452541583595)
Falcon Fuel,7900-7910 S Lafayette Ave,41.7508910465927,-87.6259685054235,CHATHAM,False,POINT (-87.6259685054235 41.7508910465927)
Shell,6659 S Wentworth Ave,41.7728093181142,-87.6298197872635,GREATER GRAND CROSSING,False,POINT (-87.6298197872635 41.7728093181142)
107Th Food Mart,10701 S Wentworth Ave,41.6997705864983,-87.6279401550534,ROSELAND,False,POINT (-87.6279401550534 41.6997705864983)
La Casa Del Pueblo Inc,1810 S Blue Island Ave,41.8574527463958,-87.6616883310637,LOWER WEST SIDE,False,POINT (-87.6616883310637 41.8574527463958)
"Hagen'S Fish Market,Inc",5635 W Montrose Ave,41.9603545731405,-87.7686854402742,PORTAGE PARK,False,POINT (-87.7686854402742 41.9603545731405)
Andy'S Deli,5442 N Milwaukee Ave,41.9803376132098,-87.7721791725389,JEFFERSON PARK,False,POINT (-87.7721791725389 41.9803376132098)
The Grocer,1345 W Morse Ave,42.0078075101736,-87.6655186121395,ROGERS PARK,False,POINT (-87.6655186121395 42.0078075101736)
Citgo,6700-6710 S Halsted St,41.7723796165057,-87.6447416419131,ENGLEWOOD,False,POINT (-87.6447416419131 41.7723796165057)
Gaelic Imports,6346 W Gunnison St,41.9685253555743,-87.7874394024644,JEFFERSON PARK,False,POINT (-87.7874394024644 41.9685253555743)
D And D Foodmart,2000 W Devon Ave,41.998003769952,-87.6802004227905,WEST RIDGE,False,POINT (-87.6802004227905 41.998003769952)
Family Dollar #32601,3542 S Archer Ave,41.8294626186691,-87.6793915655124,MCKINLEY PARK,False,POINT (-87.6793915655124 41.8294626186691)
Finest Food & Subs,4759 N Sheridan Rd,41.9690466747172,-87.6546740589761,UPTOWN,False,POINT (-87.6546740589761 41.9690466747172)
Casa Hernandez,1725 W Lunt,42.0088967093671,-87.6733112305424,ROGERS PARK,False,POINT (-87.6733112305424 42.0088967093671)
Belmont Snack Center,2959 W Belmont Ave,41.9392539224779,-87.7026628689417,AVONDALE,False,POINT (-87.7026628689417 41.9392539224779)
Big Sharks,2424 E 75Th St,41.7591095906384,-87.5653834123844,SOUTH SHORE,False,POINT (-87.5653834123844 41.7591095906384)
Walgreens #05034,6315 S Kedzie Ave,41.778421336390494,-87.7029760581372,CHICAGO LAWN,False,POINT (-87.7029760581372 41.778421336390494)
S & S Shop 4 Less,118 S Cicero Ave,41.8788222418998,-87.7453628150769,AUSTIN,False,POINT (-87.7453628150769 41.8788222418998)
71St Food And Grocery,2304 E 71St St,41.7664162676918,-87.5695760282406,SOUTH SHORE,False,POINT (-87.5695760282406 41.7664162676918)
Franks Deli & Grocery 2,1841 W 87Th St,41.7355944024503,-87.669540853794,AUBURN GRESHAM,False,POINT (-87.669540853794 41.7355944024503)
Carniceria Ruiz Inc,3001 N Kedzie Ave,41.935791573062,-87.7073843327651,AVONDALE,False,POINT (-87.7073843327651 41.935791573062)
Wild Forks Foods,1001 W North Ave,41.9107292920993,-87.6531526218953,NEAR NORTH SIDE,False,POINT (-87.6531526218953 41.9107292920993)
La Surenna Dollar Store,5206 W Diversey Ave,41.931504597409,-87.7567732543473,BELMONT CRAGIN,False,POINT (-87.7567732543473 41.931504597409)
Duwell Fish Inc. #2,617 S Pulaski Rd,41.8729733773214,-87.7252581706681,WEST GARFIELD PARK,False,POINT (-87.7252581706681 41.8729733773214)
Afc Sushi @ Jewel Osco #3454,4250 N Lincoln Ave,41.9591004330378,-87.6823922417421,NORTH CENTER,False,POINT (-87.6823922417421 41.9591004330378)
Manhattan Mart Inc,424 S Clark St,41.8763592119695,-87.630880628516,LOOP,False,POINT (-87.630880628516 41.8763592119695)
Tuxedo Junction #2,4300 S Union Ave,41.8161861098614,-87.6434518234938,NEW CITY,False,POINT (-87.6434518234938 41.8161861098614)
The Local Store Inc.,4117 W Madison St,41.8805780761146,-87.7288495277654,WEST GARFIELD PARK,False,POINT (-87.7288495277654 41.8805780761146)
1918 Winter Street Illinois Llc,5353 N Elston Ave,41.9787102643773,-87.7571537720416,JEFFERSON PARK,False,POINT (-87.7571537720416 41.9787102643773)
Dsd Deli And Market Llc,5205 N Milwaukee,41.9748485315733,-87.7668290504377,JEFFERSON PARK,False,POINT (-87.7668290504377 41.9748485315733)
B.P.,3269-3287 S Archer Ave,41.8346137837903,-87.6705294294106,MCKINLEY PARK,False,POINT (-87.6705294294106 41.8346137837903)
1 Stop Market & Grill,2132-2134 W Washington Blvd,41.8831944724282,-87.6804664902161,NEAR WEST SIDE,False,POINT (-87.6804664902161 41.8831944724282)
Eastview Inc,1501 W Jarvis Ave,42.0159376027819,-87.6682441046934,ROGERS PARK,False,POINT (-87.6682441046934 42.0159376027819)
Hebron International Food Market,4404 W Fullerton Ave,41.924472635554,-87.7367895049934,HERMOSA,False,POINT (-87.7367895049934 41.924472635554)
Penny Profit Store,6422 N Western Ave,41.9984383230326,-87.6900521751803,WEST RIDGE,False,POINT (-87.6900521751803 41.9984383230326)
75Th State Shell,7449-59 S State St,41.758603815578,-87.6246208249225,GREATER GRAND CROSSING,False,POINT (-87.6246208249225 41.758603815578)
Shell,7449-7459 S State St,41.758603815578,-87.6246208249225,GREATER GRAND CROSSING,False,POINT (-87.6246208249225 41.758603815578)
Romanian Kosher Sausage Co,7200 N Clark St,42.0126785024364,-87.6747930363413,ROGERS PARK,False,POINT (-87.6747930363413 42.0126785024364)
Serrellis Finer Foods,6454-6460 W North Ave,41.9092298949998,-87.7871288207177,AUSTIN,False,POINT (-87.7871288207177 41.9092298949998)
Fish Corner,6408-6410 N Campbell Ave,41.998001980285,-87.6924810469506,WEST RIDGE,False,POINT (-87.6924810469506 41.998001980285)
Top Butcher,7128 W Grand Ave,41.9237368564362,-87.803789794549,MONTCLARE,False,POINT (-87.803789794549 41.9237368564362)
Madison Food & More Inc.,3851 W Madison St,41.88065348059391,-87.7228156137901,WEST GARFIELD PARK,False,POINT (-87.7228156137901 41.88065348059391)
7-Eleven #33912B,35 E Wacker Dr,41.886831512316895,-87.6265560849364,LOOP,False,POINT (-87.6265560849364 41.886831512316895)
Ogie'S Food Mart,2600-2604 W Lithuanian Plaza Ct,41.768365835791,-87.6883009077208,CHICAGO LAWN,False,POINT (-87.6883009077208 41.768365835791)
Morse Green Arch Food Mart,1337-1339 W Morse Ave,42.007813543743296,-87.6651582920393,ROGERS PARK,False,POINT (-87.6651582920393 42.007813543743296)
Gong Ming Food Market,208 W 24Th St,41.8492618732156,-87.6323703749626,ARMOUR SQUARE,False,POINT (-87.6323703749626 41.8492618732156)
7 Eleven #33729A,45 E Chicago Ave,41.896591441537105,-87.626467110625,NEAR NORTH SIDE,False,POINT (-87.626467110625 41.896591441537105)
"Kedzie Food Mart, Inc.",745 S Kedzie Ave,41.8714475991763,-87.7056916624013,EAST GARFIELD PARK,False,POINT (-87.7056916624013 41.8714475991763)
M & H Food & Deli,10500 S Michigan Ave,41.703415218678,-87.6208096791161,ROSELAND,False,POINT (-87.6208096791161 41.703415218678)
Speedy Convenient,2801 W 63Rd St,41.7790050459017,-87.6934501185802,CHICAGO LAWN,False,POINT (-87.6934501185802 41.7790050459017)
Karma Mini Mart,6214 S Ashland Ave,41.7808033525621,-87.664398538607,WEST ENGLEWOOD,False,POINT (-87.664398538607 41.7808033525621)
54 Food & Liquor,5400-5404 S Halsted St,41.7959972711947,-87.6453476738722,NEW CITY,False,POINT (-87.6453476738722 41.7959972711947)
Diamond Express Mart,2000-2002 W 79Th. St,41.7503404372806,-87.6731968977319,AUBURN GRESHAM,False,POINT (-87.6731968977319 41.7503404372806)
7-Eleven,2401 N Milwaukee Ave,41.9248974022943,-87.7003665718753,LOGAN SQUARE,False,POINT (-87.7003665718753 41.9248974022943)
Chicagoland Deli Express,3956 N Narragansett Ave,41.9527315616156,-87.7866984426282,DUNNING,False,POINT (-87.7866984426282 41.9527315616156)
Spartan Bros.Inc.,7140 N Harlem Ave,42.0111098222022,-87.806789672685,EDISON PARK,False,POINT (-87.806789672685 42.0111098222022)
Ins Market,225 N Michigan Ave Fl,41.8863774062082,-87.6243816704397,LOOP,False,POINT (-87.6243816704397 41.8863774062082)
M & S Family Food,6803 S Ashland Ave,41.7702267580187,-87.6638176858767,WEST ENGLEWOOD,False,POINT (-87.6638176858767 41.7702267580187)
Supermercado El Tapatio,10300 S Ewing Ave,41.7081244167505,-87.5354339153526,EAST SIDE,False,POINT (-87.5354339153526 41.7081244167505)
Nottoli Italian Foods,5025 N Harlem Ave,41.97262352493689,-87.8069308429968,NORWOOD PARK,False,POINT (-87.8069308429968 41.97262352493689)
Citgo,1151 W 63Rd St,41.7795037676572,-87.6541017870517,ENGLEWOOD,False,POINT (-87.6541017870517 41.7795037676572)
Shell,8249-8259 S State St,41.7439972152549,-87.6241944552967,CHATHAM,False,POINT (-87.6241944552967 41.7439972152549)
83Rd State Shell,8259 S State St,41.743702317364495,-87.6241859290832,CHATHAM,False,POINT (-87.6241859290832 41.743702317364495)
Montrose Deli Inc,5407-5417 W Montrose Ave,41.9604282640688,-87.7626656720388,PORTAGE PARK,False,POINT (-87.7626656720388 41.9604282640688)
Mohsen Food Mart Inc,4156 W Cermak Rd,41.8515898825789,-87.7294540133583,NORTH LAWNDALE,False,POINT (-87.7294540133583 41.8515898825789)
Save A Lot #21653,7908 S Halsted St,41.7503223874082,-87.6441824060583,AUBURN GRESHAM,False,POINT (-87.6441824060583 41.7503223874082)
Chicago Mm Deal,3950 W Cermak Rd,41.8516637839813,-87.7242929372576,NORTH LAWNDALE,False,POINT (-87.7242929372576 41.8516637839813)
Taqueria El Jardin,1303 W Huron St,41.8942599262721,-87.6597504137324,WEST TOWN,False,POINT (-87.6597504137324 41.8942599262721)
New York Food Mart,4136 N Broadway,41.9578207454949,-87.6527897636792,UPTOWN,False,POINT (-87.6527897636792 41.9578207454949)
Ya Ya Mini Mart,1458 W 18Th St,41.857945166903505,-87.6637121013889,LOWER WEST SIDE,False,POINT (-87.6637121013889 41.857945166903505)
7-Eleven #240606B,2600 N Lincoln Ave,41.9289716507196,-87.6539017568013,LINCOLN PARK,False,POINT (-87.6539017568013 41.9289716507196)
Wreckd Snacks,2903 W 59Th St,41.7862538165858,-87.6961824139355,CHICAGO LAWN,False,POINT (-87.6961824139355 41.7862538165858)
Citgo,5103-5117 W Madison St,41.880292815356,-87.7527682825168,AUSTIN,False,POINT (-87.7527682825168 41.880292815356)
Frank Food Mart,5050 W Madison St,41.8805193021521,-87.7521954262497,AUSTIN,False,POINT (-87.7521954262497 41.8805193021521)
Go Mart Inc.,4604 N Kedzie Ave,41.9648628665564,-87.708507719744,ALBANY PARK,False,POINT (-87.708507719744 41.9648628665564)
Kolatek'S Bakery Inc.,2445-2447 N Harlem Ave,41.9248233284734,-87.8061343543856,MONTCLARE,False,POINT (-87.8061343543856 41.9248233284734)
Harczak Sausages,7035 W Higgins Ave,41.9802892968044,-87.8036901578412,NORWOOD PARK,False,POINT (-87.8036901578412 41.9802892968044)
Romero Especies,2415 N Cicero Ave,41.9247444266305,-87.7461709278712,BELMONT CRAGIN,False,POINT (-87.7461709278712 41.9247444266305)
Deli Spot & Ice Cream,6627 N Clark St,42.0025912541835,-87.6720123326131,ROGERS PARK,False,POINT (-87.6720123326131 42.0025912541835)
Jewel-Osco #3181,87 W 87Th St,41.7361451282369,-87.6269178439735,CHATHAM,False,POINT (-87.6269178439735 41.7361451282369)
"Sushi Avenue, Inc",3640 N Halsted St,41.9485198030326,-87.6496701248645,LAKE VIEW,False,POINT (-87.6496701248645 41.9485198030326)
Falcon Fuel,43-57 N Homan Blvd,41.8822112920406,-87.7108986080365,EAST GARFIELD PARK,False,POINT (-87.7108986080365 41.8822112920406)
Afc Sushi @ Jewel Osco #3234,102 W Division St,41.904007749058,-87.6316108449446,NEAR NORTH SIDE,False,POINT (-87.6316108449446 41.904007749058)
Edible Arrangments,2362 N Clybourn Ave,41.9248572333933,-87.6691308629621,LINCOLN PARK,False,POINT (-87.6691308629621 41.9248572333933)
Ecuabariedades Cazho,16 S Kostner,41.8800526510284,-87.7356040875341,WEST GARFIELD PARK,False,POINT (-87.7356040875341 41.8800526510284)
Market Pam Tropical,5540 W North Ave,41.909499044958,-87.7647109791247,AUSTIN,False,POINT (-87.7647109791247 41.909499044958)
"Sushi Avenue, Inc.",3201-3225 N Ashland Ave,41.9397446157345,-87.6685161010639,LAKE VIEW,False,POINT (-87.6685161010639 41.9397446157345)
Potash Bros Inc,875 N State St,41.8988781974238,-87.6281111483033,NEAR NORTH SIDE,False,POINT (-87.6281111483033 41.8988781974238)
7-Eleven #33920H,3152 W 111Th St,41.6916807485625,-87.7005161745232,MOUNT GREENWOOD,False,POINT (-87.7005161745232 41.6916807485625)
The Bayouk Group,5824 W Division St,41.9021636153519,-87.7716665155311,AUSTIN,False,POINT (-87.7716665155311 41.9021636153519)
South Loop Market,2340 N California Ave,41.924017757586,-87.6975423745426,LOGAN SQUARE,False,POINT (-87.6975423745426 41.924017757586)
Fantastic Food Mart Inc,2453 E 75Th St,41.7589043222685,-87.5642620430134,SOUTH SHORE,False,POINT (-87.5642620430134 41.7589043222685)
T & L Convenience Store And Restaurant,5038 W Madison St,41.880525101359,-87.7517400897556,AUSTIN,False,POINT (-87.7517400897556 41.880525101359)
Josephs Finest Meats Inc,7101 W Addison St,41.9452249446671,-87.8033645481086,DUNNING,False,POINT (-87.8033645481086 41.9452249446671)
Fresh Stop,930 W Belmont Ave,41.9400398968501,-87.6527558788004,LAKE VIEW,False,POINT (-87.6527558788004 41.9400398968501)
Casa Roman,6978 N Clark St,42.00885647224089,-87.6740803739619,ROGERS PARK,False,POINT (-87.6740803739619 42.00885647224089)
"New York Deli, Inc.",316 E 47Th St,41.809457735882,-87.6188328588615,GRAND BOULEVARD,False,POINT (-87.6188328588615 41.809457735882)
S & T Provision Co.,3804 W 111Th St,41.6914459102858,-87.715673103885,MOUNT GREENWOOD,False,POINT (-87.715673103885 41.6914459102858)
The Bodega,1000 N Hamlin Ave,41.8991505862318,-87.7214622859742,HUMBOLDT PARK,False,POINT (-87.7214622859742 41.8991505862318)
C&M Deli,1113 W Chicago Ave,41.8961482343828,-87.6559089332873,WEST TOWN,False,POINT (-87.6559089332873 41.8961482343828)
Circle K,3601 N Western Ave,41.9468234003182,-87.688112633821,NORTH CENTER,False,POINT (-87.688112633821 41.9468234003182)
Citgo,8601-8615 S Halsted St,41.737973780282495,-87.6435254107888,AUBURN GRESHAM,False,POINT (-87.6435254107888 41.737973780282495)
Miko'S,4125 N Kimball Ave,41.956450402202,-87.7128452298273,IRVING PARK,False,POINT (-87.7128452298273 41.956450402202)
Fezo Grocery Inc.,342 E 71St St,41.7657891412205,-87.6167913943788,GREATER GRAND CROSSING,False,POINT (-87.6167913943788 41.7657891412205)
Quick Food Mart,3424 W Ohio St,41.8919426370059,-87.7124878053994,HUMBOLDT PARK,False,POINT (-87.7124878053994 41.8919426370059)
Bossman Market & Fast Food,1945 S Keeler Ave,41.854372897033,-87.7295654406356,NORTH LAWNDALE,False,POINT (-87.7295654406356 41.854372897033)
Fine Fair Food & Liquor,3357-3359 W 16Th St,41.8589206858733,-87.7101738892696,NORTH LAWNDALE,False,POINT (-87.7101738892696 41.8589206858733)
Rosalinda Food Market Plus,5924 W Roosevelt St,41.8655895146432,-87.7728382926561,AUSTIN,False,POINT (-87.7728382926561 41.8655895146432)
Foodsmart,3413-3419 W Diversey Ave,41.9318534676552,-87.7128261800949,LOGAN SQUARE,False,POINT (-87.7128261800949 41.9318534676552)
Falcon Fuel,7858 S Western Ave,41.7501917279248,-87.6829967215591,ASHBURN,False,POINT (-87.6829967215591 41.7501917279248)
Western Montrose Shell,4346 N Western Ave,41.9609132153612,-87.6888174201694,NORTH CENTER,False,POINT (-87.6888174201694 41.9609132153612)
Douglas Park Dollar & Food,1514 S Kedzie Ave,41.86087643673591,-87.7056581692223,NORTH LAWNDALE,False,POINT (-87.7056581692223 41.86087643673591)
8245 Kedzie Mart,8245 S Kedzie Ave,41.7429852521848,-87.7020642848133,ASHBURN,False,POINT (-87.7020642848133 41.7429852521848)
Save A Lot,414-424 S Pulaski Rd,41.8747401644184,-87.7256071101661,WEST GARFIELD PARK,False,POINT (-87.7256071101661 41.8747401644184)
Keeler Food Mart,4150 W Roosevelt Rd,41.866216951203,-87.729689336645,NORTH LAWNDALE,False,POINT (-87.729689336645 41.866216951203)
Circle K,2 N Wabash Ave,41.8821345537885,-87.6263633033626,LOOP,False,POINT (-87.6263633033626 41.8821345537885)
7-Eleven # 30099C,6540 W Belmont Ave,41.9383623815073,-87.790006288159,DUNNING,False,POINT (-87.790006288159 41.9383623815073)
Elmouine1122 Corp.,3857-3859 W Madison,41.8806501624938,-87.7230471534104,WEST GARFIELD PARK,False,POINT (-87.7230471534104 41.8806501624938)
Rudy'S Food & Liquor,1558 W 69Th St,41.768662295987,-87.6638416537146,WEST ENGLEWOOD,False,POINT (-87.6638416537146 41.768662295987)
7-Eleven #26825,3800 N Kedzie Ave,41.9503702668103,-87.7080669684227,IRVING PARK,False,POINT (-87.7080669684227 41.9503702668103)
7-Eleven,343 S Dearborn St,41.8771467862163,-87.629121233169,LOOP,False,POINT (-87.629121233169 41.8771467862163)
B.P.,2953-2959 W Fulton St,41.886375632623,-87.7010050165726,EAST GARFIELD PARK,False,POINT (-87.7010050165726 41.886375632623)
Metro Spice Mart,229 S Jefferson St,41.8783961049393,-87.6424016569327,NEAR WEST SIDE,False,POINT (-87.6424016569327 41.8783961049393)
Metro Spice Mart,125 S Jefferson St Ste A,41.879762888454,-87.6424464563556,NEAR WEST SIDE,False,POINT (-87.6424464563556 41.879762888454)
Patel Bros,2610 W Devon Ave,41.9977473006482,-87.6952511580755,WEST RIDGE,False,POINT (-87.6952511580755 41.9977473006482)
"Quick Food Mart 2, Inc.",547 N Kedzie Ave,41.891759531797,-87.7062947815695,HUMBOLDT PARK,False,POINT (-87.7062947815695 41.891759531797)
7-Eleven,2759 N Harlem Ave,41.9307444173081,-87.8063452909303,MONTCLARE,False,POINT (-87.8063452909303 41.9307444173081)
"Maya Superstore, Inc.",3536 W 63Rd St,41.7789401249448,-87.7118685722898,CHICAGO LAWN,False,POINT (-87.7118685722898 41.7789401249448)
Clark,8106 S Racine Ave,41.746594707551104,-87.6537811741079,AUBURN GRESHAM,False,POINT (-87.6537811741079 41.746594707551104)
7-Eleven #33779,2900 W Montrose Ave,41.961343153284,-87.7009729821867,ALBANY PARK,False,POINT (-87.7009729821867 41.961343153284)
"Mid City Food & Fuel,Inc.",8950-8958 S Ashland Ave,41.7305933812543,-87.6630576298821,WASHINGTON HEIGHTS,False,POINT (-87.6630576298821 41.7305933812543)
Bronzville Finer Foods,232-234 E 35Th St,41.8311806982065,-87.6204909409371,DOUGLAS,False,POINT (-87.6204909409371 41.8311806982065)
7-Eleven,5953 W 63Rd St,41.7777575387234,-87.7711939681996,CLEARING,False,POINT (-87.7711939681996 41.7777575387234)
Circle K,137 -139 S Clinton St,41.879418472566094,-87.6409660597527,NEAR WEST SIDE,False,POINT (-87.6409660597527 41.879418472566094)
Pulaski Food & Deli Inc,2022-24 S Pulaski Rd,41.8535894748452,-87.7249551590166,NORTH LAWNDALE,False,POINT (-87.7249551590166 41.8535894748452)
Snoop Food Mart,8657 S Commercial Ave,41.7375277854382,-87.5512872956567,SOUTH CHICAGO,False,POINT (-87.5512872956567 41.7375277854382)
La Merced Inc,4335 W 26Th St,41.8440327965074,-87.73243286472,SOUTH LAWNDALE,False,POINT (-87.73243286472 41.8440327965074)
Nuts On Clark Inc,3830 N Clark St,41.9518063435787,-87.6603814599045,LAKE VIEW,False,POINT (-87.6603814599045 41.9518063435787)
"El Mercado Food Mart, Llc",3767 N Southport Ave,41.9509653698584,-87.6639780547007,LAKE VIEW,False,POINT (-87.6639780547007 41.9509653698584)
Colfax Mart,2554 E 83Rd St,41.7446321590225,-87.5614927640038,SOUTH CHICAGO,False,POINT (-87.5614927640038 41.7446321590225)
"Jimmy'S Food & Deli,Inc",5601 W Madison St,41.8801350622554,-87.7649424467103,AUSTIN,False,POINT (-87.7649424467103 41.8801350622554)
Family Dollar  # 25310,4646 S Halsted St,41.8094847746762,-87.6457043739191,NEW CITY,False,POINT (-87.6457043739191 41.8094847746762)
Speedway # 8317,3354 N Damen Ave,41.943049987813296,-87.678594616867,NORTH CENTER,False,POINT (-87.678594616867 41.943049987813296)
Metro Max Grocery & Coffee Shop,5637 W Fullerton Ave,41.9238472867167,-87.7674979442567,BELMONT CRAGIN,False,POINT (-87.7674979442567 41.9238472867167)
Commercial Stop & Shop,8900-8904 S Commercial Ave,41.7336369893612,-87.5514902961154,SOUTH CHICAGO,False,POINT (-87.5514902961154 41.7336369893612)
Drake Quick Mart,3524 W Montrose Ave,41.9611949331465,-87.7166655260548,ALBANY PARK,False,POINT (-87.7166655260548 41.9611949331465)
Big Salem Inc,1724 E 71St St,41.7662859281877,-87.5827342047212,SOUTH SHORE,False,POINT (-87.5827342047212 41.7662859281877)
"8900 Food & Liquor, Inc.",8900 S Commercial Ave,41.7336369893612,-87.5514902961154,SOUTH CHICAGO,False,POINT (-87.5514902961154 41.7336369893612)
Luxry Food Mart,2902 W 63Rd St,41.7791885241667,-87.6959766735737,CHICAGO LAWN,False,POINT (-87.6959766735737 41.7791885241667)
Annabah Food Mart,7337 S South Shore Dr,41.7632350238681,-87.5596166824636,SOUTH SHORE,False,POINT (-87.5596166824636 41.7632350238681)
Apple Food Mart,5255 W Madison St,41.8802365438658,-87.7572203921175,AUSTIN,False,POINT (-87.7572203921175 41.8802365438658)
Division Food & Grocery Mart,5606-5612 W Division St,41.9022506896928,-87.7659509237617,AUSTIN,False,POINT (-87.7659509237617 41.9022506896928)
7-Eleven #33921B,6800 W North Ave,41.9091345709045,-87.7949281307848,AUSTIN,False,POINT (-87.7949281307848 41.9091345709045)
Edible Arrangements,9939 S Halsted St,41.7130348747209,-87.6428324829542,WASHINGTON HEIGHTS,False,POINT (-87.6428324829542 41.7130348747209)
Danny'S Mini Store,5050 S Kedzie Ave,41.80112410900551,-87.7039203783261,GAGE PARK,False,POINT (-87.7039203783261 41.80112410900551)
7-Eleven #35978A,504 N Halsted St,41.8913637037447,-87.6477684729125,WEST TOWN,False,POINT (-87.6477684729125 41.8913637037447)
Long Mini Mart,5401 W Division St,41.9020808161401,-87.7610798057741,AUSTIN,False,POINT (-87.7610798057741 41.9020808161401)
Al Sultan Limited,2001 E 75Th St,41.7587673551048,-87.5760781480439,SOUTH SHORE,False,POINT (-87.5760781480439 41.7587673551048)
7-Eleven #16689G,3801 N Western Ave,41.9504271258755,-87.6882158437937,NORTH CENTER,False,POINT (-87.6882158437937 41.9504271258755)
Adrian'S Foods Market #2 Inc.,3258 W Montrose Ave,41.9612695269616,-87.710631228962,ALBANY PARK,False,POINT (-87.710631228962 41.9612695269616)
R&M Mart,5604-5606 W Chicago Ave,41.8949593173274,-87.7656318390601,AUSTIN,False,POINT (-87.7656318390601 41.8949593173274)
Ont Group,236 N Pulaski Rd,41.8846431405856,-87.7259286636785,WEST GARFIELD PARK,False,POINT (-87.7259286636785 41.8846431405856)
Eddy'S Food Mart,3661 W Ogden Ave,41.8535726600133,-87.7172542890669,NORTH LAWNDALE,False,POINT (-87.7172542890669 41.8535726600133)
Chicago Super Market Inc,5471-5473 W Chicago Ave,41.89475794613271,-87.7634950836786,AUSTIN,False,POINT (-87.7634950836786 41.89475794613271)
7-Eleven #37152 A,30 E Jackson St,41.8783434588105,-87.6266025637123,LOOP,False,POINT (-87.6266025637123 41.8783434588105)
7 Eleven #33591J,4859 N Milwaukee Ave,41.9693942217583,-87.761887172396,JEFFERSON PARK,False,POINT (-87.761887172396 41.9693942217583)
7-Eleven,4346 N Kimball Ave,41.960731356474305,-87.7132761335675,IRVING PARK,False,POINT (-87.7132761335675 41.960731356474305)
Citgo,7600 S Exchange Ave,41.7571563598016,-87.55840891305,SOUTH SHORE,False,POINT (-87.55840891305 41.7571563598016)
Falcon Fuel,4002 W Chicago Ave,41.8954759659814,-87.7262185013236,HUMBOLDT PARK,False,POINT (-87.7262185013236 41.8954759659814)
Han / Citgo,6700-6710 S Cottage Grove Ave,41.7730478218863,-87.6059130528716,WOODLAWN,False,POINT (-87.6059130528716 41.7730478218863)
One Stop Food & Liquor Store,4301-4323 S Lake Park Ave,41.816865148052,-87.5986888441667,KENWOOD,False,POINT (-87.5986888441667 41.816865148052)
7-Eleven 33609,2020 N California Ave,41.9181071242197,-87.697365295386,LOGAN SQUARE,False,POINT (-87.697365295386 41.9181071242197)
Nineveh Mart & Meat,2850 W Devon Ave,41.9976349634943,-87.7016813774542,WEST RIDGE,False,POINT (-87.7016813774542 41.9976349634943)
Atour Foods Inc,6348 N Claremont Ave,41.997374684834,-87.6887983177883,WEST RIDGE,False,POINT (-87.6887983177883 41.997374684834)
Ameera Food,6415 N Western Ave,41.9982171456466,-87.6897516976725,WEST RIDGE,False,POINT (-87.6897516976725 41.9982171456466)
North Lawndale Meat & Fresh Product Market,628 S Pulaski Rd,41.8726231598806,-87.7255482399807,WEST GARFIELD PARK,False,POINT (-87.7255482399807 41.8726231598806)
Family Dollar#32483,2019 W 79Th St,41.7501131663485,-87.6738985985342,AUBURN GRESHAM,False,POINT (-87.6738985985342 41.7501131663485)
Midwest,1932 E 75Th St,41.7589735392576,-87.5772991892172,SOUTH SHORE,False,POINT (-87.5772991892172 41.7589735392576)
Villa'S Nuts And Candy,4635 W 63Rd St,41.7783593388042,-87.7387595452185,CLEARING,False,POINT (-87.7387595452185 41.7783593388042)
K & M Quick Mart,11334 S Michigan Ave,41.6879579423947,-87.6211380630312,ROSELAND,False,POINT (-87.6211380630312 41.6879579423947)
Mister Gerry'S,11859 S Michigan Ave Frnt,41.6781066282589,-87.6203645100294,WEST PULLMAN,False,POINT (-87.6203645100294 41.6781066282589)
Alex 75 Food,432 E 75Th St,41.7585420417018,-87.6138244172892,GREATER GRAND CROSSING,False,POINT (-87.6138244172892 41.7585420417018)
Luciano'S Grocery-18Th St,1714 W 18Th St,41.857856567514304,-87.6694195955633,LOWER WEST SIDE,False,POINT (-87.6694195955633 41.857856567514304)
Someria Food Mart Inc.,2814 W Devon Ave,41.9976589831736,-87.700297039657,WEST RIDGE,False,POINT (-87.700297039657 41.9976589831736)
7-Eleven,4353 W 55Th St,41.7930080284197,-87.7326455150384,WEST ELSDON,False,POINT (-87.7326455150384 41.7930080284197)
"C & A Wireless, Inc.",6261 W Grand Ave,41.921793915115,-87.7829298401527,BELMONT CRAGIN,False,POINT (-87.7829298401527 41.921793915115)
Big Time Food & Deli,737 S Pulaski Rd,41.8715317849435,-87.7252217460104,WEST GARFIELD PARK,False,POINT (-87.7252217460104 41.8715317849435)
Penningtons Foods And Snacks Galore,410 E 79Th St,41.751234332866,-87.6144710222988,GREATER GRAND CROSSING,False,POINT (-87.6144710222988 41.751234332866)
7-Eleven #32889B,48 N Wells St,41.8831317757678,-87.6340072395928,LOOP,False,POINT (-87.6340072395928 41.8831317757678)
Express Food Mart & Cellular 1,11058 S Wentworth Ave,41.6925731483279,-87.6280528939856,ROSELAND,False,POINT (-87.6280528939856 41.6925731483279)
"111 Th Food & Cellular, Inc",423-425 E 111Th St,41.6926385628104,-87.6123874955325,ROSELAND,False,POINT (-87.6123874955325 41.6926385628104)
Pepper Palace,845 N Michigan Ave,41.8980799205033,-87.6239457056618,NEAR NORTH SIDE,False,POINT (-87.6239457056618 41.8980799205033)
7-Eleven #36718B,3600 W Belmont Ave,41.9393251924953,-87.7174616250532,AVONDALE,False,POINT (-87.7174616250532 41.9393251924953)
7-Eleven #33606H,567 W Lake St,41.8855942896074,-87.6425260044194,NEAR WEST SIDE,False,POINT (-87.6425260044194 41.8855942896074)
South Shore Food Mart Inc.,7900 S South Shore Dr,41.751855602467,-87.5482503373389,SOUTH CHICAGO,False,POINT (-87.5482503373389 41.751855602467)
"Mg Old Fashion Meat Market, Inc.",7143 S State St,41.7642051740183,-87.6247337784151,GREATER GRAND CROSSING,False,POINT (-87.6247337784151 41.7642051740183)
Carniceria El Porvenir,150 E Kensington Ave,41.6840631979591,-87.6187429679261,WEST PULLMAN,False,POINT (-87.6187429679261 41.6840631979591)
King Fish And Chicken Food Mart,8101 S Ashland Ave,41.746625624889,-87.6631962229071,AUBURN GRESHAM,False,POINT (-87.6631962229071 41.746625624889)
Carniceria Aguacalientes,3132 W 26Th St,41.8446400035817,-87.7038745499713,SOUTH LAWNDALE,False,POINT (-87.7038745499713 41.8446400035817)
Paradise Mart,4809 N Central Park Ave,41.9686674216531,-87.7181163211028,ALBANY PARK,False,POINT (-87.7181163211028 41.9686674216531)
7-Eleven Domy Corp,5562 N Lincoln Ave,41.9826089687743,-87.694475412623,LINCOLN SQUARE,False,POINT (-87.694475412623 41.9826089687743)
7-Eleven #33483J,180 N Franklin St,41.885330374442304,-87.6355478622186,LOOP,False,POINT (-87.6355478622186 41.885330374442304)
Hanas Finer Food And Liquor,1311 E 87Th St,41.73671244036,-87.5924552500395,CALUMET HEIGHTS,False,POINT (-87.5924552500395 41.73671244036)
Masala'S,2229 W Taylor St,41.8689207970879,-87.6823829644249,NEAR WEST SIDE,False,POINT (-87.6823829644249 41.8689207970879)
Mandela African Grocery,722 E 79Th St,41.7513692700707,-87.6066770714611,GREATER GRAND CROSSING,False,POINT (-87.6066770714611 41.7513692700707)
7-Eleven #33705K,216 W Jackson Blvd,41.87822324151809,-87.6342473795109,LOOP,False,POINT (-87.6342473795109 41.87822324151809)
Pete'S,656 E 75Th St,41.7586451534284,-87.6079895073858,GREATER GRAND CROSSING,True,POINT (-87.6079895073858 41.7586451534284)
Tasty Chicken & Fish Food Mart,1120-1122 W 95Th St,41.7214660882639,-87.6515878591621,WASHINGTON HEIGHTS,False,POINT (-87.6515878591621 41.7214660882639)
Troy Food Mart,3142 W Cermak Rd,41.8518859623224,-87.7044649036697,SOUTH LAWNDALE,False,POINT (-87.7044649036697 41.8518859623224)
Supermercado El Taxquenito,6309 W Grand Ave,41.9218942299317,-87.7833975200501,BELMONT CRAGIN,False,POINT (-87.7833975200501 41.9218942299317)
Someria Food Mart Inc.,2812-1/2 W Devon Ave,41.9976605449365,-87.700212519329,WEST RIDGE,False,POINT (-87.700212519329 41.9976605449365)
7 Eleven #33854B,645 N State St,41.8938190484226,-87.6279782977746,NEAR NORTH SIDE,False,POINT (-87.6279782977746 41.8938190484226)
7-Eleven #33363H,416-418 N State St,41.889875317185506,-87.6281490413335,NEAR NORTH SIDE,False,POINT (-87.6281490413335 41.889875317185506)
Cremeria La Ordena #3 Llc,3234 W 26Th St,41.8446099224887,-87.7063193435995,SOUTH LAWNDALE,False,POINT (-87.7063193435995 41.8446099224887)
7-Eleven,29 E Madison St,41.8819653302525,-87.6267932215942,LOOP,False,POINT (-87.6267932215942 41.8819653302525)
Villa'S Nuts & Candy,5935 S Pulaski Rd,41.784922133915,-87.7227863914915,WEST LAWN,False,POINT (-87.7227863914915 41.784922133915)
Circle K #6736,346-350 W Chicago Ave,41.896655371083,-87.6375075014329,NEAR NORTH SIDE,False,POINT (-87.6375075014329 41.896655371083)
7-Eleven #36881J,177 N Wells St,41.8852571940536,-87.6337697960107,LOOP,False,POINT (-87.6337697960107 41.8852571940536)
Feyrous Pastries,4508-4510 N Kedzie Ave,41.9633191594931,-87.7084599275707,ALBANY PARK,False,POINT (-87.7084599275707 41.9633191594931)
7-Eleven,318 W Adams St,41.87947279718,-87.6358074810281,LOOP,False,POINT (-87.6358074810281 41.87947279718)
Mayfair Shell,4721 N Elston Ave,41.966695739261,-87.7378615253899,IRVING PARK,False,POINT (-87.7378615253899 41.966695739261)
Fresh Mart Express Inc.,9455 S Ashland Ave,41.7214216530356,-87.6625438076181,WASHINGTON HEIGHTS,False,POINT (-87.6625438076181 41.7214216530356)
Fannie May Candies,144 S Dearborn St,41.8795932635929,-87.6295010122081,LOOP,False,POINT (-87.6295010122081 41.8795932635929)
"Rich'S Deli & Liquor, Inc",857 N Western Ave,41.8974609844909,-87.6867385576512,WEST TOWN,False,POINT (-87.6867385576512 41.8974609844909)
7-Eleven #37622B,4 W Jackson Blvd,41.8782861562156,-87.6278044662305,LOOP,False,POINT (-87.6278044662305 41.8782861562156)
Mobile,11501-11515 S Halsted St,41.685029586669295,-87.6420045321889,WEST PULLMAN,False,POINT (-87.6420045321889 41.685029586669295)
Franklin Newsstand Inc.,225 W Wacker Dr,41.8867092220261,-87.6347108994595,LOOP,False,POINT (-87.6347108994595 41.8867092220261)
Mana,434 E 71St St,41.7658442147471,-87.6139149652518,GREATER GRAND CROSSING,False,POINT (-87.6139149652518 41.7658442147471)
Fuel Zone,130 E 71St St,41.7657174799939,-87.620349643544,GREATER GRAND CROSSING,False,POINT (-87.620349643544 41.7657174799939)
R & W Food Mart,3900 W Madison St,41.8808651559037,-87.7233759677506,WEST GARFIELD PARK,False,POINT (-87.7233759677506 41.8808651559037)
Spot Stop Deli & Grocery,1122 W Wilson Ave,41.965497036127296,-87.6584028095484,UPTOWN,False,POINT (-87.6584028095484 41.965497036127296)
The Unit,2523 E 75Th St,41.7589223174373,-87.5628760391371,SOUTH SHORE,False,POINT (-87.5628760391371 41.7589223174373)
7-Eleven #30105F,6000 W Higgins Ave,41.9732920446058,-87.7782422869839,JEFFERSON PARK,False,POINT (-87.7782422869839 41.9732920446058)
7-Eleven #38046A,191 W Adams St,41.879279386987506,-87.6334593932675,LOOP,False,POINT (-87.6334593932675 41.879279386987506)
Adrians Food Market,3700 W Diversey Ave,41.931989422908,-87.7196992651201,AVONDALE,False,POINT (-87.7196992651201 41.931989422908)
Big Sams Food Mart,133 E 75Th St,41.7582084447493,-87.6200884401159,GREATER GRAND CROSSING,False,POINT (-87.6200884401159 41.7582084447493)
Go! Grocer,820 S Michigan Ave,41.8715767088999,-87.6243095156687,LOOP,False,POINT (-87.6243095156687 41.8715767088999)
Our Food Store,3901 N Kedzie Ave,41.9522008883931,-87.7078220211701,IRVING PARK,False,POINT (-87.7078220211701 41.9522008883931)
Xmarket,804 W Montrose Ave,41.9619505511262,-87.6501320506605,UPTOWN,False,POINT (-87.6501320506605 41.9619505511262)
Taj Neighborhood Grocery Inc.,1744 W Estes Ave,42.0115266178203,-87.6741773360543,ROGERS PARK,False,POINT (-87.6741773360543 42.0115266178203)
71 Food Wholesale,2001 W 71St St,41.7646961210413,-87.6735927847007,WEST ENGLEWOOD,False,POINT (-87.6735927847007 41.7646961210413)
Circle K,211 W Adams St,41.87927283877671,-87.6341031983783,LOOP,False,POINT (-87.6341031983783 41.87927283877671)
"Lilys Kwick Stop 1, Llc.",3179 W Madison St,41.8808643621008,-87.7059974487402,EAST GARFIELD PARK,False,POINT (-87.7059974487402 41.8808643621008)
Gateway Newstand,150 N Riverside Plz,41.8850894557689,-87.6384055941719,NEAR WEST SIDE,False,POINT (-87.6384055941719 41.8850894557689)
North Avenue Food And Grocery Inc,4737 W North Ave,41.9095290577458,-87.7450805104931,AUSTIN,False,POINT (-87.7450805104931 41.9095290577458)
7-Eleven #29150F,3401 W Irving Park Rd,41.953746186808495,-87.7129631256416,IRVING PARK,False,POINT (-87.7129631256416 41.953746186808495)
7-Eleven # 32934E,2010 N Damen Ave,41.9181053424085,-87.6777805387856,LOGAN SQUARE,False,POINT (-87.6777805387856 41.9181053424085)
7-Eleven,4500 W 63Rd St,41.7786249931406,-87.7350293641059,WEST LAWN,False,POINT (-87.7350293641059 41.7786249931406)
"South Shore Mini Mart, Inc",7603-7643 S South Chicago Ave,41.7568558348046,-87.5928141734443,SOUTH SHORE,False,POINT (-87.5928141734443 41.7568558348046)
El Barakah Super Market,7300 S South Shore Dr,41.7639095582031,-87.5606414961611,SOUTH SHORE,False,POINT (-87.5606414961611 41.7639095582031)
Roseranch Farms,525 E 130Th St,41.6590247217974,-87.6090913977334,RIVERDALE,False,POINT (-87.6090913977334 41.6590247217974)
Falcon Fuel & Mini Mart,7600-7606 S Halsted St,41.7559957904814,-87.6443282388639,AUBURN GRESHAM,False,POINT (-87.6443282388639 41.7559957904814)
79Th Market,857 E 79Th St,41.7512032601125,-87.6028989789261,CHATHAM,False,POINT (-87.6028989789261 41.7512032601125)
Kasia'S,2101 W Chicago Ave,41.895756300747905,-87.679619700253,WEST TOWN,False,POINT (-87.679619700253 41.895756300747905)
Park To Shop Supermaarket,2121 S Archer Ave,41.853797051587,-87.6326169135875,ARMOUR SQUARE,False,POINT (-87.6326169135875 41.853797051587)
L & L Convenience Store,633 E 71St St,41.7657039538942,-87.6091918179229,GREATER GRAND CROSSING,False,POINT (-87.6091918179229 41.7657039538942)
Langley Citgo,11101 S Langley Ave,41.6927251901845,-87.6058462224609,PULLMAN,False,POINT (-87.6058462224609 41.6927251901845)
Charles Austin Limited,1801-1803 S Canal St,41.8575700475551,-87.6387853651394,LOWER WEST SIDE,False,POINT (-87.6387853651394 41.8575700475551)
Mini  Azteca,6924 N Clark St,42.0073311926301,-87.6737246511649,ROGERS PARK,False,POINT (-87.6737246511649 42.0073311926301)
Citgo Gas,6661 S State St,41.7731393710581,-87.6249913991379,GREATER GRAND CROSSING,False,POINT (-87.6249913991379 41.7731393710581)
"Uptown Shop & Save Inc.,",4605 N Sheridan Rd,41.9655835157699,-87.6546434328009,UPTOWN,False,POINT (-87.6546434328009 41.9655835157699)
Chatham Fresh Mart,402-408 E 83Rd St,41.7439240045961,-87.6146079625199,CHATHAM,False,POINT (-87.6146079625199 41.7439240045961)
7-Eleven,343 N La Salle St,41.8886333288977,-87.6323625274824,NEAR NORTH SIDE,False,POINT (-87.6323625274824 41.8886333288977)
Circle K,2760 W Belmont Ave,41.9395038412093,-87.6975532648823,AVONDALE,False,POINT (-87.6975532648823 41.9395038412093)
"Eli Cli Food Mart, Inc.",741 W 79Th St,41.7505453806251,-87.6432188374481,AUBURN GRESHAM,False,POINT (-87.6432188374481 41.7505453806251)
Michigan Food Center Inc.,5539 S Michigan Ave,41.7932959967266,-87.6222848833979,WASHINGTON PARK,False,POINT (-87.6222848833979 41.7932959967266)
7-Eleven,1153 W Belmont Ave,41.9397334746826,-87.6586519342414,LAKE VIEW,False,POINT (-87.6586519342414 41.9397334746826)
The Newport Cafe & Mini Mart Llc,4800 S Chicago Beach Dr,41.807254392728495,-87.5866743553796,KENWOOD,False,POINT (-87.5866743553796 41.807254392728495)
Quality Food & Beverage,2553-2557 W 71St St,41.7645150033853,-87.6878180546179,CHICAGO LAWN,False,POINT (-87.6878180546179 41.7645150033853)
Go Grocer,1251-1255 S Michigan Ave,41.8660790143502,-87.6239740702885,NEAR SOUTH SIDE,False,POINT (-87.6239740702885 41.8660790143502)
Circle K,601 N Dearborn St,41.8924913615036,-87.6295307322501,NEAR NORTH SIDE,False,POINT (-87.6295307322501 41.8924913615036)
"Sushi Avenue, Inc.",2500 N Elston Ave,41.9269309588488,-87.6804079040704,LOGAN SQUARE,False,POINT (-87.6804079040704 41.9269309588488)
"Billy'S Mexican Food Mart, Inc.",3034 W 63Rd St,41.779134173453,-87.6996335759357,CHICAGO LAWN,False,POINT (-87.6996335759357 41.779134173453)
Save A Lot,10700-10736 S Halsted St,41.6995474146674,-87.64275191512,MORGAN PARK,False,POINT (-87.64275191512 41.6995474146674)
Moodz Food & Deli,233 W 119Th St,41.6778486792721,-87.6287189947171,WEST PULLMAN,False,POINT (-87.6287189947171 41.6778486792721)
Healthy Lg Nutrition,1459 W 47Th St,41.8085277930439,-87.6624703416028,NEW CITY,False,POINT (-87.6624703416028 41.8085277930439)
Irving & Clark Shell,4000 N Clark St,41.9544324414169,-87.6624462591406,LAKE VIEW,False,POINT (-87.6624462591406 41.9544324414169)
Supermercado Antonio'S Corp.,2656 S Homan,41.8427686092756,-87.7100127232431,SOUTH LAWNDALE,False,POINT (-87.7100127232431 41.8427686092756)
Halsted9900 Business Inc,9900 S Halsted St,41.714118868089905,-87.6431454081817,WASHINGTON HEIGHTS,False,POINT (-87.6431454081817 41.714118868089905)
7-Eleven #33511C,33 E Adams St,41.879401253648,-87.6264870995865,LOOP,False,POINT (-87.6264870995865 41.879401253648)
"Cottage Grove Meat & Grocery, Inc",7458 S Cottage Grove Ave,41.7586671811582,-87.6055423710709,GREATER GRAND CROSSING,True,POINT (-87.6055423710709 41.7586671811582)
Joe'S Food Market,1035 W 59Th St,41.7868258664311,-87.6511952263977,ENGLEWOOD,False,POINT (-87.6511952263977 41.7868258664311)
Fofo Food Market,10251 S Michigan Ave,41.707483270321106,-87.620020029038,ROSELAND,False,POINT (-87.620020029038 41.707483270321106)
Gigis Food Market,3101 W 63Rd St,41.778896937925,-87.7007575752604,CHICAGO LAWN,False,POINT (-87.7007575752604 41.778896937925)
Homan Food Mart,3358 W Chicago Ave,41.895618195667105,-87.7112303308096,HUMBOLDT PARK,False,POINT (-87.7112303308096 41.895618195667105)
Mobil On Cottage Inc.,9452 S Cottage Grove Ave,41.7225683543427,-87.6046393626626,ROSELAND,False,POINT (-87.6046393626626 41.7225683543427)
Lawndale Food Wine & Spirits Inc,3949 W Ogden Ave,41.8511633791777,-87.7241733447501,NORTH LAWNDALE,False,POINT (-87.7241733447501 41.8511633791777)
Smart Food & Mart Inc,5300 W Division St,41.902330170444,-87.7583129361955,AUSTIN,False,POINT (-87.7583129361955 41.902330170444)
Mid America Food Mart Inc.,1007 W 63Rd St,41.7795645848728,-87.6499748357139,ENGLEWOOD,False,POINT (-87.6499748357139 41.7795645848728)
Don Gollo Supermercado,6113-6115 S Kedzie Ave,41.782214883276,-87.7030817676818,CHICAGO LAWN,False,POINT (-87.7030817676818 41.782214883276)
"Cremeria Santa Maria, Inc",3424 W 26Th St,41.8445442920089,-87.7110727967655,SOUTH LAWNDALE,False,POINT (-87.7110727967655 41.8445442920089)
J & J Fruit Market,2732 W Cermak Rd,41.8520265338097,-87.6942730795277,SOUTH LAWNDALE,False,POINT (-87.6942730795277 41.8520265338097)
7- Eleven,600 S Dearborn St,41.8744811656813,-87.6293565399055,LOOP,False,POINT (-87.6293565399055 41.8744811656813)
Cicero Big Mart,401 S Cicero Ave,41.8749572296921,-87.7449185830561,AUSTIN,False,POINT (-87.7449185830561 41.8749572296921)
Super Shopper Food Mart,1351 W 79Th St,41.7503211205725,-87.658189052916,AUBURN GRESHAM,False,POINT (-87.658189052916 41.7503211205725)
Life Spring Health Food,3178 N Clark St,41.9397051625988,-87.6506501341374,LAKE VIEW,False,POINT (-87.6506501341374 41.9397051625988)
C-Store,5640 S University,41.792025410968705,-87.5982363521241,HYDE PARK,False,POINT (-87.5982363521241 41.792025410968705)
Kings Food Grocery Store,6600 S Halsted St,41.7742481164465,-87.6447897745678,ENGLEWOOD,False,POINT (-87.6447897745678 41.7742481164465)
Aladdin'S Food,7465 S Vincennes,41.75818264439631,-87.6311955617936,GREATER GRAND CROSSING,False,POINT (-87.6311955617936 41.75818264439631)
"A & D Live Chicken Poultry, Inc",2601 S Ridgeway Ave,41.844240130251904,-87.7183034877943,SOUTH LAWNDALE,False,POINT (-87.7183034877943 41.844240130251904)
"7 Days Of Chicago, Inc.",955 E 79Th St,41.7512262875187,-87.6005638430289,CHATHAM,False,POINT (-87.6005638430289 41.7512262875187)
Home Run Bp,4064-4070 N Clark St,41.9560943251735,-87.6634769603529,LAKE VIEW,False,POINT (-87.6634769603529 41.9560943251735)
Kna Food & Liquor,2001 W Marquette Rd,41.77196605569,-87.6737717779295,WEST ENGLEWOOD,False,POINT (-87.6737717779295 41.77196605569)
Vernon Street Market,427 E 75Th St,41.7583184116855,-87.6140886186091,GREATER GRAND CROSSING,True,POINT (-87.6140886186091 41.7583184116855)
Samir Market & Tobacco Inc.,8224 S Ashland Ave,41.7441240651299,-87.6634284032969,AUBURN GRESHAM,False,POINT (-87.6634284032969 41.7441240651299)
"5 Guys Market, Inc.",1040-1044 E 79Th St,41.7514651054694,-87.5987332809639,GREATER GRAND CROSSING,False,POINT (-87.5987332809639 41.7514651054694)
Van Buren & Ashland Amoco,1600 W Van Buren St,41.8764609273406,-87.6667076507355,NEAR WEST SIDE,False,POINT (-87.6667076507355 41.8764609273406)
Food Basket,7205 S Halsted St,41.7631811950353,-87.6442150210482,ENGLEWOOD,False,POINT (-87.6442150210482 41.7631811950353)
7-Eleven,5206 N Western Ave,41.976121121893904,-87.6893073155546,LINCOLN SQUARE,False,POINT (-87.6893073155546 41.976121121893904)
Grand Palace,7131-7133 S State St,41.7645736328826,-87.6247399650523,GREATER GRAND CROSSING,False,POINT (-87.6247399650523 41.7645736328826)
Market Fish Cooked & Fresh,7127 S State St,41.7646834429118,-87.6247421958599,GREATER GRAND CROSSING,False,POINT (-87.6247421958599 41.7646834429118)
La Estrella,3835 W 26Th St,41.8441880803,-87.7209498689437,SOUTH LAWNDALE,False,POINT (-87.7209498689437 41.8441880803)
Go! Grocer,1400 S Michigan Ave,41.8640015435498,-87.6242257291397,NEAR SOUTH SIDE,False,POINT (-87.6242257291397 41.8640015435498)
Lil Bjs Variety Shop,405 E 69Th St,41.7692341055121,-87.6151230119863,GREATER GRAND CROSSING,True,POINT (-87.6151230119863 41.7692341055121)
Francisco Espinoza,8827 S Escanaba Ave,41.73469613091991,-87.5539906943642,SOUTH CHICAGO,False,POINT (-87.5539906943642 41.73469613091991)
Tony'S Deli & Grill,3798 W 79Th St,41.7497367901781,-87.7181779425283,ASHBURN,False,POINT (-87.7181779425283 41.7497367901781)
7-Eleven #36793B,4150 N Broadway,41.9582012264902,-87.6530347724324,UPTOWN,False,POINT (-87.6530347724324 41.9582012264902)
Save A Lot #61314,2858 E 83Rd St,41.7447308394738,-87.5540391375391,SOUTH CHICAGO,False,POINT (-87.5540391375391 41.7447308394738)
La Plazuelita,3055 S Tripp Ave,41.8370215610786,-87.7302855261612,SOUTH LAWNDALE,False,POINT (-87.7302855261612 41.8370215610786)
Mario'S Butcher Shop,5817-5825 W Madison St,41.880044980759,-87.7704933793396,AUSTIN,False,POINT (-87.7704933793396 41.880044980759)
The Market By Foxtrot,114 W Chicago Ave,41.8967370512094,-87.6318337615845,NEAR NORTH SIDE,False,POINT (-87.6318337615845 41.8967370512094)
"1200 Jes Fuels,Inc",1200-1210 W 111Th St,41.6923471257644,-87.6522323351445,MORGAN PARK,False,POINT (-87.6522323351445 41.6923471257644)
Lakeside Mart,4759 W Lake St,41.8865019865209,-87.7454007540256,AUSTIN,False,POINT (-87.7454007540256 41.8865019865209)
Urban Markets Of Edgebrook Inc.,6415 N Central Ave,41.9978600139107,-87.7634457985608,FOREST GLEN,False,POINT (-87.7634457985608 41.9978600139107)
"El Castillo Meat Market, Inc",3704 W 55Th St,41.7934191265059,-87.7160439974366,WEST ELSDON,False,POINT (-87.7160439974366 41.7934191265059)
Dollar Tree #06214,4225 W Armitage Ave,41.9169782000286,-87.7326054444817,HERMOSA,False,POINT (-87.7326054444817 41.9169782000286)
7-Eleven,1036 N Dearborn St,41.9017355868964,-87.6300679189941,NEAR NORTH SIDE,False,POINT (-87.6300679189941 41.9017355868964)
Circle K,200 N La Salle St,41.8857611244913,-87.6325951531094,LOOP,False,POINT (-87.6325951531094 41.8857611244913)
"Tjp Services, Llc",6313-6319 S Vernon Ave,41.7798336961146,-87.614254883759,WOODLAWN,False,POINT (-87.614254883759 41.7798336961146)
Carniceria Y Taqueria Tierra,3312-3314 W North Ave,41.910185359904,-87.709907051705,HUMBOLDT PARK,False,POINT (-87.709907051705 41.910185359904)
Munchies,3824 W Madison St,41.8808851180747,-87.7217514077796,WEST GARFIELD PARK,False,POINT (-87.7217514077796 41.8808851180747)
Speedway #8320,3554 W North Ave,41.9101080822488,-87.7163634777977,HUMBOLDT PARK,False,POINT (-87.7163634777977 41.9101080822488)
Rosa'S Supermercado,3324 W 55Th St,41.7935713499645,-87.7071723986113,GAGE PARK,False,POINT (-87.7071723986113 41.7935713499645)
Prestige Liquors,7104 S Western Ave,41.7644955967058,-87.6833842674839,CHICAGO LAWN,False,POINT (-87.6833842674839 41.7644955967058)
Fullerton & Kostner Shell,4401 W Fullerton Ave,41.9242548955705,-87.736628651365,HERMOSA,False,POINT (-87.736628651365 41.9242548955705)
M & R Mini Mart,5607 S Racine Ave,41.7920873501076,-87.6546751184414,ENGLEWOOD,False,POINT (-87.6546751184414 41.7920873501076)
Los Potrillos,3624 W Belmont Ave,41.9393095160057,-87.718539940519,AVONDALE,False,POINT (-87.718539940519 41.9393095160057)
Ha Grocery,3509 W Chicago Ave,41.8953702124333,-87.7142251886216,HUMBOLDT PARK,False,POINT (-87.7142251886216 41.8953702124333)
King & 61St Grocery,400 E 61St St,41.7839950695219,-87.6156541627908,WOODLAWN,False,POINT (-87.6156541627908 41.7839950695219)
"Green Apple Mini Mart, Inc",1435 N Sedgwick St,41.908551211947,-87.6383656608268,NEAR NORTH SIDE,False,POINT (-87.6383656608268 41.908551211947)
7- Eleven,600 N Mcclurg Ct,41.8926792200735,-87.617863711646,NEAR NORTH SIDE,False,POINT (-87.617863711646 41.8926792200735)
Food Rocket,160 E Grand Ave,41.8918660486354,-87.6229453280302,NEAR NORTH SIDE,False,POINT (-87.6229453280302 41.8918660486354)
7-Eleven,200 N Dearborn St,41.8857963123492,-87.6296461541294,LOOP,False,POINT (-87.6296461541294 41.8857963123492)
Fulton Super Mart,210 N Halsted St,41.8860483963374,-87.6476323382756,NEAR WEST SIDE,False,POINT (-87.6476323382756 41.8860483963374)
Los Dos Rios,2939 W 63Rd St,41.7789479617482,-87.6973581227947,CHICAGO LAWN,False,POINT (-87.6973581227947 41.7789479617482)
Dept Of Rehabilitation Svc/Vfp,2650 S California Ave,41.84299598959289,-87.6953093057209,SOUTH LAWNDALE,False,POINT (-87.6953093057209 41.84299598959289)
Jet Star Food Mart,4858 S Cottage Grove Ave,41.805982549959,-87.6066364157808,GRAND BOULEVARD,False,POINT (-87.6066364157808 41.805982549959)
The Fudge Pot,1532 N Wells St,41.9101297869424,-87.6348252837504,NEAR NORTH SIDE,False,POINT (-87.6348252837504 41.9101297869424)
Adom African Market,118 E 47Th St,41.8094093351636,-87.622027518743,GRAND BOULEVARD,False,POINT (-87.622027518743 41.8094093351636)
Save-A-Lot  #862,4701 S Cottage Grove Ave,41.809489246531,-87.606417429394,KENWOOD,False,POINT (-87.606417429394 41.809489246531)
La Familia Dollar Plus,4019 W 63Rd St,41.7785365421852,-87.7236423388184,WEST LAWN,False,POINT (-87.7236423388184 41.7785365421852)
76,505 E 103Rd St,41.707245001535,-87.611097191369,ROSELAND,False,POINT (-87.611097191369 41.707245001535)
Save-A-Lot #882,344 E 63Rd St,41.7803216101169,-87.6171353803756,WASHINGTON PARK,False,POINT (-87.6171353803756 41.7803216101169)
Ramone Mini Mart,8226 S Cottage Grove Ave,41.7449668105852,-87.6052072693018,CHATHAM,False,POINT (-87.6052072693018 41.7449668105852)
Saravale Meat Market,5254 W Irving Park Rd,41.9533873280015,-87.75933890898,PORTAGE PARK,False,POINT (-87.75933890898 41.9533873280015)
21St Street Food Mart,2027 S California Ave,41.8537658873506,-87.6953605986155,SOUTH LAWNDALE,False,POINT (-87.6953605986155 41.8537658873506)
Lawrence Food And Liquors,5933-5935 W Lawrence Ave,41.9675589209148,-87.7760829702324,PORTAGE PARK,False,POINT (-87.7760829702324 41.9675589209148)
"Green Foods & Liquor, Inc.",1026 E 67Th St,41.7733089702171,-87.5997511135584,WOODLAWN,False,POINT (-87.5997511135584 41.7733089702171)
Piatto Pronto,5624 N Clark St,41.9842610445585,-87.6690728767967,EDGEWATER,False,POINT (-87.6690728767967 41.9842610445585)
7-Eleven,5320 N Cumberland Ave,41.9762654513127,-87.8367659910519,OHARE,False,POINT (-87.8367659910519 41.9762654513127)
7 Eleven #33582B,58 E Lake St,41.8858376876983,-87.6259189720239,LOOP,False,POINT (-87.6259189720239 41.8858376876983)
Gateway Newstand,303 E Wacker Dr,41.8877053793783,-87.620588143928,LOOP,False,POINT (-87.620588143928 41.8877053793783)
S & A Mini Mart,325 E 47Th St,41.8092434108899,-87.6184815261373,GRAND BOULEVARD,False,POINT (-87.6184815261373 41.8092434108899)
Teques Bites,3004 N Pulaski Rd,41.9355854384292,-87.7272309253918,AVONDALE,False,POINT (-87.7272309253918 41.9355854384292)
7-Eleven #33758 C,2421 W 103Rd St,41.7062678473764,-87.6825682396452,BEVERLY,False,POINT (-87.6825682396452 41.7062678473764)
Gage Park Citgo & Food Mart,2801 W 59Th St,41.7862960144104,-87.6936518260288,CHICAGO LAWN,False,POINT (-87.6936518260288 41.7862960144104)
Rangoli Parlour,3834 W Lawrence Ave,41.968389011033,-87.7246035923604,ALBANY PARK,False,POINT (-87.7246035923604 41.968389011033)
"Roseland Food Mart, Inc.",11136 S Michigan Ave,41.6915310706074,-87.6211831662167,ROSELAND,False,POINT (-87.6211831662167 41.6915310706074)
Citgo Food Mart,721 E 103Rd St,41.7073461545838,-87.6056110010648,PULLMAN,False,POINT (-87.6056110010648 41.7073461545838)
7-Eleven,958 W Diversey Pkwy,41.932748996008705,-87.6538014889958,LAKE VIEW,False,POINT (-87.6538014889958 41.932748996008705)
7-Eleven #37759 A,1027 W Addison St,41.947116537075,-87.6554598732655,LAKE VIEW,False,POINT (-87.6554598732655 41.947116537075)
Woodlawn Neighborhood Market,460 E 61St St,41.7840366233918,-87.613315042592,WOODLAWN,False,POINT (-87.613315042592 41.7840366233918)
Am-Pm Food Mart&Cellular,1924 E 87Th St,41.73714625394631,-87.57708099341,AVALON PARK,False,POINT (-87.57708099341 41.73714625394631)
One Eleven Food & Liquor Inc,111 N Kedzie Ave,41.8832349432295,-87.7060367001199,EAST GARFIELD PARK,False,POINT (-87.7060367001199 41.8832349432295)
Citgo,10655 S Halsted St,41.6998469283808,-87.6424673012532,ROSELAND,False,POINT (-87.6424673012532 41.6998469283808)
7 Eleven,2757 N Pine Grove Ave,41.9326487251165,-87.6411505682537,LINCOLN PARK,False,POINT (-87.6411505682537 41.9326487251165)
Hentry Citgo,8300 S Stony Island Ave,41.744151639042,-87.5859450669529,AVALON PARK,False,POINT (-87.5859450669529 41.744151639042)
Circle K,850 N State St,41.8981603691834,-87.6283871119414,NEAR NORTH SIDE,False,POINT (-87.6283871119414 41.8981603691834)
Save A Lot,832 W 63Rd St,41.7798400024992,-87.6461307600008,ENGLEWOOD,False,POINT (-87.6461307600008 41.7798400024992)
Tamara 1  Food Mart,3452 W Chicago Ave,41.8955964397716,-87.7135399789888,HUMBOLDT PARK,False,POINT (-87.7135399789888 41.8955964397716)
Super Mercado Barrera,2336 N Milwaukee Ave,41.9235566759215,-87.6986467664773,LOGAN SQUARE,False,POINT (-87.6986467664773 41.9235566759215)
Yakup Bey Uri,4640-4642 N Kedzie Ave,41.9658473322182,-87.7085418868916,ALBANY PARK,False,POINT (-87.7085418868916 41.9658473322182)
Margarita'S Meat Market,2701 E 79Th St,41.7517203779526,-87.5589312928648,SOUTH CHICAGO,False,POINT (-87.5589312928648 41.7517203779526)
Medo Foods,221 E 58Th St,41.7891739825126,-87.6198912924823,WASHINGTON PARK,False,POINT (-87.6198912924823 41.7891739825126)
Tea Gschwender,1160 N State St,41.9036251522623,-87.6288208959807,NEAR NORTH SIDE,False,POINT (-87.6288208959807 41.9036251522623)
Food For More Inc.,5126 W Division St,41.9023742455398,-87.7543440732528,AUSTIN,False,POINT (-87.7543440732528 41.9023742455398)
"Sam Food,Deli & Fast Food",6558 S Ashland Ave,41.7741010567902,-87.6642196704863,WEST ENGLEWOOD,False,POINT (-87.6642196704863 41.7741010567902)
Family Dollar  Store # 6538,5660 W Roosevelt Rd,41.865674118765,-87.7666993771603,AUSTIN,False,POINT (-87.7666993771603 41.865674118765)
7-Eleven,957 W Armitage Ave,41.917997567508,-87.6532193769583,LINCOLN PARK,False,POINT (-87.6532193769583 41.917997567508)
Sams Food & Deli,10658 S State St,41.6999134699819,-87.6234615028566,ROSELAND,False,POINT (-87.6234615028566 41.6999134699819)
1350 Lake Shore Dr. Commissary,1350 N Lake Shore Dr,41.9073601744412,-87.6258106615082,NEAR NORTH SIDE,False,POINT (-87.6258106615082 41.9073601744412)
Hooked On Fish,1036-1038 W Bryn Mawr Ave,41.983791990764,-87.6566817863192,EDGEWATER,False,POINT (-87.6566817863192 41.983791990764)
Margarita'S Meat Market,2709 E 79Th St,41.7517263635816,-87.5584679777662,SOUTH CHICAGO,False,POINT (-87.5584679777662 41.7517263635816)
A.A.A. Food And Mini Mart,5300 W Harrison St,41.8730236314266,-87.7575231749245,AUSTIN,False,POINT (-87.7575231749245 41.8730236314266)
Clark,6112-6124 S Ashland Ave,41.7826789546245,-87.6644451430336,WEST ENGLEWOOD,False,POINT (-87.6644451430336 41.7826789546245)
Challenge Wholesale,7128-7130 S Vincennes Ave,41.7645850955036,-87.6284877345731,GREATER GRAND CROSSING,False,POINT (-87.6284877345731 41.7645850955036)
Saginaw Food Mart Inc.,2635 E 79Th St,41.7517045089587,-87.5600356039313,SOUTH CHICAGO,False,POINT (-87.5600356039313 41.7517045089587)
The Fish Keg Inc,2233 W Howard St,42.0193947423811,-87.68602049759,WEST RIDGE,False,POINT (-87.68602049759 42.0193947423811)
7-Eleven #27100E,2741 W Touhy Ave,42.0119770258814,-87.6989872076418,WEST RIDGE,False,POINT (-87.6989872076418 42.0119770258814)
Uptown Food,4661 N Broadway,41.9669887759766,-87.6583251490448,UPTOWN,False,POINT (-87.6583251490448 41.9669887759766)
Citgo,8250-8258 S Western Ave,41.7431130402901,-87.6828297104044,ASHBURN,False,POINT (-87.6828297104044 41.7431130402901)
Adams Food Mart,6810 S Stony Island Ave,41.771140704476096,-87.5864199092255,SOUTH SHORE,False,POINT (-87.5864199092255 41.771140704476096)
Family Dollar #6514,2420 W 51St St,41.8012514037157,-87.6850355316107,GAGE PARK,False,POINT (-87.6850355316107 41.8012514037157)
Racine Food & General Merchandise,5500 S Racine Ave,41.7937276922538,-87.6550099828955,WEST ENGLEWOOD,False,POINT (-87.6550099828955 41.7937276922538)
Dh Tasting Room,854 W Armitage Ave,41.9182554862198,-87.6507124184099,LINCOLN PARK,False,POINT (-87.6507124184099 41.9182554862198)
Skip'S Food And Liquor,5515 S Damen Ave,41.7930666308707,-87.6741214290078,WEST ENGLEWOOD,False,POINT (-87.6741214290078 41.7930666308707)
Nelson'S Mini-Mart,608 E 61St St,41.784085932355,-87.610491102672,WOODLAWN,False,POINT (-87.610491102672 41.784085932355)
Marquette Marathon,2010 W Marquette Rd,41.7721809446803,-87.6741978345339,WEST ENGLEWOOD,False,POINT (-87.6741978345339 41.7721809446803)
Fair Food Mart,133 E 69Th St,41.7691349409206,-87.6203705380251,GREATER GRAND CROSSING,False,POINT (-87.6203705380251 41.7691349409206)
Thorntons #322,3450 S California Ave,41.8304028226018,-87.6949524678679,BRIGHTON PARK,False,POINT (-87.6949524678679 41.8304028226018)
E-Wood Pantry,1556 W 63Rd St,41.7795775437224,-87.6641710727199,WEST ENGLEWOOD,False,POINT (-87.6641710727199 41.7795775437224)
Ashland Liquor,6257 S Ashland Ave,41.7796146657817,-87.664077489259,WEST ENGLEWOOD,False,POINT (-87.664077489259 41.7796146657817)
Citgo,9145-9159 S Stony Island Ave,41.72833033235911,-87.5848732597883,CALUMET HEIGHTS,False,POINT (-87.5848732597883 41.72833033235911)
Five One Food Mart Inc,51 E 51St St,41.8018686327655,-87.623914271385,WASHINGTON PARK,False,POINT (-87.623914271385 41.8018686327655)
Family Foods Convenience,2802 E 87Th St,41.7374318107713,-87.5561494490651,SOUTH CHICAGO,False,POINT (-87.5561494490651 41.7374318107713)
Chi-Gro Grocer,1228 N Milwaukee Ave,41.903970595748895,-87.6676657293862,WEST TOWN,False,POINT (-87.6676657293862 41.903970595748895)
7-Eleven 37760A,3519 N Clark St,41.9462808110104,-87.655603128083,LAKE VIEW,False,POINT (-87.655603128083 41.9462808110104)
Damen Citgo,6300 S Damen Ave,41.7792269206926,-87.6740527313785,WEST ENGLEWOOD,False,POINT (-87.6740527313785 41.7792269206926)
Armitage Produce Inc,2007 N Kimball Ave,41.9175624188997,-87.7117551086784,LOGAN SQUARE,False,POINT (-87.7117551086784 41.9175624188997)
Citgo,5901 S Ashland Ave,41.7866577598914,-87.6642458654684,WEST ENGLEWOOD,False,POINT (-87.6642458654684 41.7866577598914)
Dollar Tree Stores #07068,715 E 47Th St,41.8093988935318,-87.6083016739729,GRAND BOULEVARD,False,POINT (-87.6083016739729 41.8093988935318)
Family Dollar #6083,4425 S Cottage Grove Ave,41.8142270728725,-87.6065233744074,KENWOOD,False,POINT (-87.6065233744074 41.8142270728725)
The Gig Plus Inc,7104 S Jeffery Blvd,41.765920416429104,-87.5764402487624,SOUTH SHORE,False,POINT (-87.5764402487624 41.765920416429104)
520 Bp Gas,520 S California Ave,41.8742192232432,-87.696260143885,EAST GARFIELD PARK,False,POINT (-87.696260143885 41.8742192232432)
Damen Food Mart,6240 S Damen Ave,41.7799215991144,-87.6740624850446,WEST ENGLEWOOD,False,POINT (-87.6740624850446 41.7799215991144)
Cj Minimart,2124 E 71St St,41.7663835899287,-87.5727792754358,SOUTH SHORE,False,POINT (-87.5727792754358 41.7663835899287)
Pullman Express Food & Deli,11858 S State St,41.6780682775512,-87.6228064913637,WEST PULLMAN,False,POINT (-87.6228064913637 41.6780682775512)
Western Food & Grocery,1358 N Western Ave,41.906573215648,-87.6872680893752,WEST TOWN,False,POINT (-87.6872680893752 41.906573215648)
Rim Foods,5810 W North Ave,41.9094229517162,-87.7707326498814,AUSTIN,False,POINT (-87.7707326498814 41.9094229517162)
Mobile,7200-7206 S Western Ave,41.7627838419466,-87.6833369060751,CHICAGO LAWN,False,POINT (-87.6833369060751 41.7627838419466)
79Th Fresh Food & Meat Market,2900 E 79Th St,41.7520053919329,-87.5540154168578,SOUTH SHORE,False,POINT (-87.5540154168578 41.7520053919329)
Star Convenience Mart,2521-2523 E 79Th Street,41.7516649599199,-87.5629063195471,SOUTH CHICAGO,False,POINT (-87.5629063195471 41.7516649599199)
El Buen San Pedrano,4500 S Wood St,41.8121051529772,-87.6700718335162,NEW CITY,False,POINT (-87.6700718335162 41.8121051529772)
Bronzeville Convenient Mart,450 E 43Rd St,41.8167852444805,-87.6144774271133,GRAND BOULEVARD,False,POINT (-87.6144774271133 41.8167852444805)
7-Eleven #33725,201 E Ohio St,41.8924518013869,-87.6225664489639,NEAR NORTH SIDE,False,POINT (-87.6225664489639 41.8924518013869)
Pasta Fresh Co,3418 N Harlem Ave,41.9422068679824,-87.8070446629869,DUNNING,False,POINT (-87.8070446629869 41.9422068679824)
Max Tobacco & Grocery,68 E 71St St,41.7656775413493,-87.6222564579891,GREATER GRAND CROSSING,False,POINT (-87.6222564579891 41.7656775413493)
Dollar Tree #5886,9341 S Ashland Ave,41.7235984413941,-87.6625853764112,WASHINGTON HEIGHTS,False,POINT (-87.6625853764112 41.7235984413941)
Jordan Valley,1976 E 73Rd St,41.7626237722281,-87.5762857275751,SOUTH SHORE,False,POINT (-87.5762857275751 41.7626237722281)
"Quinto'S Market, Corp.",2459 S Millard Ave,41.8462971046045,-87.715916429549,SOUTH LAWNDALE,False,POINT (-87.715916429549 41.8462971046045)
Valley Of Jordan I Corp.,1009 E 53Rd St,41.7992983426866,-87.6009323625761,HYDE PARK,False,POINT (-87.6009323625761 41.7992983426866)
D & A Food & Liquor,1601 W Garfield Blvd,41.7935543630008,-87.6646375511651,WEST ENGLEWOOD,False,POINT (-87.6646375511651 41.7935543630008)
Amstar,5501 S Ashland Ave,41.7935912941157,-87.6644276372214,WEST ENGLEWOOD,False,POINT (-87.6644276372214 41.7935912941157)
Dom'S Kitchen & Market,1233 N Wells St,41.904896822179,-87.6343694184691,NEAR NORTH SIDE,False,POINT (-87.6343694184691 41.904896822179)
Sams Food Incorporated,6401 S Kedzie Ave,41.777100788075,-87.7029475418966,CHICAGO LAWN,False,POINT (-87.7029475418966 41.777100788075)
Carniceria Jimenez Inc,4204-4216 W North Ave,41.909925247057906,-87.7315572163244,HUMBOLDT PARK,False,POINT (-87.7315572163244 41.909925247057906)
Le Fenix,2706 S Lawndale Ave,41.8422511330412,-87.7173210601435,SOUTH LAWNDALE,False,POINT (-87.7173210601435 41.8422511330412)
Herbalife,4758 W Belmont Ave,41.9389442394332,-87.7462473117744,PORTAGE PARK,False,POINT (-87.7462473117744 41.9389442394332)
"Estela Minimarket, Inc.",1315 W Chicago Ave,41.8960754027252,-87.6601462193496,WEST TOWN,False,POINT (-87.6601462193496 41.8960754027252)
Tacos El Mercadito Llc,5716 W 63Rd St,41.778099713637,-87.7649646656073,CLEARING,False,POINT (-87.7649646656073 41.778099713637)
7-Eleven #33856B,2004 N Halsted St,41.9183795460978,-87.6486643485401,LINCOLN PARK,False,POINT (-87.6486643485401 41.9183795460978)
Afc Sushi @ Walgreens #15921,410 N Michigan Ave,41.8898747912625,-87.624259761444,NEAR NORTH SIDE,False,POINT (-87.624259761444 41.8898747912625)
Fairplay Foods,2323 W 111Th St,41.6916792040307,-87.6797791725256,MORGAN PARK,False,POINT (-87.6797791725256 41.6916792040307)
7-Eleven #35632B,2821 N Ashland Ave,41.933079368823,-87.6682752905827,LAKE VIEW,False,POINT (-87.6682752905827 41.933079368823)
Hollywood Wine & Deli,5652 N Western Ave,41.9847263511591,-87.689628456298,WEST RIDGE,False,POINT (-87.689628456298 41.9847263511591)
Bp,8642-8650 S Morgan St,41.7365436003383,-87.6486434256891,AUBURN GRESHAM,False,POINT (-87.6486434256891 41.7365436003383)
Alex 88 Food,435 E 71St St,41.765624733422,-87.6139084218871,GREATER GRAND CROSSING,False,POINT (-87.6139084218871 41.765624733422)
Exxon,6300-6308 W Foster Ave,41.975765419442304,-87.7852277261481,JEFFERSON PARK,False,POINT (-87.7852277261481 41.975765419442304)
Snd Mini Mart,2600 E 87Th St,41.7373692315621,-87.561095585346,SOUTH CHICAGO,False,POINT (-87.561095585346 41.7373692315621)
Family Dollar #31914,415 S Kedzie Ave,41.8753632611998,-87.7058186249371,EAST GARFIELD PARK,False,POINT (-87.7058186249371 41.8753632611998)
Yaba'S Food And Grill,3011 W Armitage Ave,41.9173247938891,-87.7029121345982,LOGAN SQUARE,False,POINT (-87.7029121345982 41.9173247938891)
Joe'S Food & Liquor,3626 W Lawrence Ave,41.968445246044,-87.719416575814,ALBANY PARK,False,POINT (-87.719416575814 41.968445246044)
Arzan Market,4706-4708 N Kimball Ave,41.966840477941105,-87.7134635359084,ALBANY PARK,False,POINT (-87.7134635359084 41.966840477941105)
Lg 25 Food & Liquor,4706-08 N Kimball Ave,41.966840477941105,-87.7134635359084,ALBANY PARK,False,POINT (-87.7134635359084 41.966840477941105)
Binny'S Beverage Depot,2409 N Elston Pkwy,41.925908414758,-87.6758363498004,LOGAN SQUARE,False,POINT (-87.6758363498004 41.925908414758)
Cvs/Pharmacy #2809,2815 N Western Ave,41.93266088021689,-87.6877711519903,LOGAN SQUARE,False,POINT (-87.6877711519903 41.93266088021689)
Afc Sushi@Jewel-Osco #3368,550 N State St,41.8924213661312,-87.6282348711371,NEAR NORTH SIDE,False,POINT (-87.6282348711371 41.8924213661312)
Potash Gourmet 44,175 E Delaware Pl,41.8991173969114,-87.6229556659062,NEAR NORTH SIDE,False,POINT (-87.6229556659062 41.8991173969114)
Austin Sweets Shop Llc,1550 N Mason Ave,41.908949475098,-87.774526285945,AUSTIN,False,POINT (-87.774526285945 41.908949475098)
La Esmeralda Deli,1147 N Pulaski Rd,41.9021993479963,-87.7261416235182,HUMBOLDT PARK,False,POINT (-87.7261416235182 41.9021993479963)
"Y & H Food Market,Ltd.",9307 S Halsted St,41.724755900324,-87.6431562897176,WASHINGTON HEIGHTS,False,POINT (-87.6431562897176 41.724755900324)
Curly'S Deli Mart,200-206 S Cicero Ave,41.878565958181504,-87.7453536723697,AUSTIN,False,POINT (-87.7453536723697 41.878565958181504)
La Adelita,2058 W 19Th St,41.8559125370644,-87.6782666721091,LOWER WEST SIDE,False,POINT (-87.6782666721091 41.8559125370644)
Racine One Stop Food,7357 S Racine Ave,41.7597043856918,-87.6538315323327,ENGLEWOOD,False,POINT (-87.6538315323327 41.7597043856918)
Go Grocer,7555 W Irving Park Rd,41.9524297188003,-87.8168323370774,DUNNING,False,POINT (-87.8168323370774 41.9524297188003)
K Om Food Mart,400 S Kostner Ave,41.8750962545298,-87.7354299190151,WEST GARFIELD PARK,False,POINT (-87.7354299190151 41.8750962545298)
Dirk Fish & Gourmet Shop Inc,2070 N Clybourn Ave,41.9189314240257,-87.6608942170866,LINCOLN PARK,False,POINT (-87.6608942170866 41.9189314240257)
A To Z Food Mart,4009 N Kedzie Ave,41.9542382514738,-87.7078778170628,IRVING PARK,False,POINT (-87.7078778170628 41.9542382514738)
7-Eleven,6057 S Kedzie Ave,41.7827525701425,-87.7031018898297,CHICAGO LAWN,False,POINT (-87.7031018898297 41.7827525701425)
La Tiendita Products Llc,5363 W North Ave,41.9093304659811,-87.7604302269194,AUSTIN,False,POINT (-87.7604302269194 41.9093304659811)
Krj Neighborhood Store Llc,8313 S Racine Ave,41.7427877336951,-87.6533842507542,AUBURN GRESHAM,False,POINT (-87.6533842507542 41.7427877336951)
Racine Food & Spirits,6055-6057 S Racine Ave,41.7834513068347,-87.6544529465762,ENGLEWOOD,False,POINT (-87.6544529465762 41.7834513068347)
Greenview Rogers Park,7575 N Rogers Ave,42.0191646249703,-87.6683972880009,ROGERS PARK,False,POINT (-87.6683972880009 42.0191646249703)
Citgo,2800-2812 W 63Rd St,41.7792245323867,-87.6934564410327,CHICAGO LAWN,False,POINT (-87.6934564410327 41.7792245323867)
Fatboy,2501 W 63Rd St,41.7791127110995,-87.6861499611284,CHICAGO LAWN,False,POINT (-87.6861499611284 41.7791127110995)
Speedway #8309,2303 S Western Ave,41.8501088554994,-87.6854376461942,LOWER WEST SIDE,False,POINT (-87.6854376461942 41.8501088554994)
Parkwest Liquor,2570 N Lincoln Ave,41.9285966453226,-87.6533881733845,LINCOLN PARK,False,POINT (-87.6533881733845 41.9285966453226)
Embassy Gifts,300 E Ohio St,41.89271058459391,-87.6201306584058,NEAR NORTH SIDE,False,POINT (-87.6201306584058 41.89271058459391)
Avenue Foods,5305 W Chicago Ave,41.8947984386002,-87.758292856687,AUSTIN,False,POINT (-87.758292856687 41.8947984386002)
Bockwinkel'S,320 E Ohio St,41.8927224130769,-87.6193937448626,NEAR NORTH SIDE,False,POINT (-87.6193937448626 41.8927224130769)
Ott Convenience,1645 N Wells St,41.9124696059425,-87.6346036686312,LINCOLN PARK,False,POINT (-87.6346036686312 41.9124696059425)
Kabul Mart,2705 W Devon Ave,41.9974880820589,-87.6974200821589,WEST RIDGE,False,POINT (-87.6974200821589 41.9974880820589)
Ali'S Food Mart,1308 S Central Park Ave,41.8640987843152,-87.7155017163213,NORTH LAWNDALE,False,POINT (-87.7155017163213 41.8640987843152)
Montrose Deli,6601 W Irving Park Rd,41.9527216579488,-87.7913622126282,DUNNING,False,POINT (-87.7913622126282 41.9527216579488)
Food Rocket,2925 N Halsted St,41.9352507007485,-87.6489529634451,LAKE VIEW,False,POINT (-87.6489529634451 41.9352507007485)
Family Dollar # 7726,3217 W North Ave,41.9099973278479,-87.7076577613768,HUMBOLDT PARK,False,POINT (-87.7076577613768 41.9099973278479)
Bari,1120 W Grand Ave,41.8912101212336,-87.6555602414018,WEST TOWN,False,POINT (-87.6555602414018 41.8912101212336)
Cremeria La Ordena #2,3810 W Lawrence Ave,41.968398207775,-87.7236372050378,ALBANY PARK,False,POINT (-87.7236372050378 41.968398207775)
Cent N 4 Convenient Store,12315 S State St,41.6702523999279,-87.6222719561747,WEST PULLMAN,False,POINT (-87.6222719561747 41.6702523999279)
Speedy Choice Food Mart,4900 W Madison St,41.8805711459643,-87.7479572489268,AUSTIN,False,POINT (-87.7479572489268 41.8805711459643)
Alexandra Foods,3300-3308 N Central Ave,41.940443982198,-87.7667126478611,PORTAGE PARK,False,POINT (-87.7667126478611 41.940443982198)
Gamble'S Mini Market And Quick Bites,934 W 103Rd St,41.7069918579375,-87.6466264128991,WASHINGTON HEIGHTS,False,POINT (-87.6466264128991 41.7069918579375)
7-Eleven #26878 F,6559 W Archer Ave,41.7921411187576,-87.786626362305,GARFIELD RIDGE,False,POINT (-87.786626362305 41.7921411187576)
Travel Traders Llc,301 E North Water St,41.8894582801094,-87.6203683764291,NEAR NORTH SIDE,False,POINT (-87.6203683764291 41.8894582801094)
Michigan Food Mart & More Inc.,100 E 47Th St,41.809398169618895,-87.6227573197023,GRAND BOULEVARD,False,POINT (-87.6227573197023 41.809398169618895)
Tai Wah Grocery,2226 S Wentworth Ave,41.852127197722,-87.6321439956803,ARMOUR SQUARE,False,POINT (-87.6321439956803 41.852127197722)
Gulf,9901 S Halsted St,41.7141256492775,-87.6428525474429,WASHINGTON HEIGHTS,False,POINT (-87.6428525474429 41.7141256492775)
"43Rd Food & Tobacco, Inc.",200 E 43Rd St,41.8166750350858,-87.6213297992859,GRAND BOULEVARD,False,POINT (-87.6213297992859 41.8166750350858)
King Smokes,1232 N Milwaukee Ave,41.9040527154137,-87.6677930887463,WEST TOWN,False,POINT (-87.6677930887463 41.9040527154137)
Foxtrot,236 S Franklin St,41.8783824960241,-87.6353562932777,LOOP,False,POINT (-87.6353562932777 41.8783824960241)
Travel Traders @ Embassy Suite,511 N Columbus Dr,41.8914048806943,-87.6200812297377,NEAR NORTH SIDE,False,POINT (-87.6200812297377 41.8914048806943)
Mama'S Meat Market,3000 S Drake Ave,41.8388160623887,-87.7135648565188,SOUTH LAWNDALE,False,POINT (-87.7135648565188 41.8388160623887)
"Mg Old Fashion Meat Market, Inc.",7141 S State St,41.7642651775902,-87.6247343392817,GREATER GRAND CROSSING,True,POINT (-87.6247343392817 41.7642651775902)
Ke Food Mart,1202 W 63Rd St,41.7797169766201,-87.6546512845945,WEST ENGLEWOOD,False,POINT (-87.6546512845945 41.7797169766201)
Family Dollar #5630,8030 S Halsted St,41.7478783759905,-87.6441080312306,AUBURN GRESHAM,False,POINT (-87.6441080312306 41.7478783759905)
7-Eleven #38183B,135 W Madison St,41.8818567436378,-87.6318961615518,LOOP,False,POINT (-87.6318961615518 41.8818567436378)
808 Food Mart Inc.,808 W 87Th St,41.7361777075947,-87.6440663486537,AUBURN GRESHAM,False,POINT (-87.6440663486537 41.7361777075947)
Valle'S Produce #5 Corporation,6110 W 63Rd St,41.7779153185307,-87.7744623742247,CLEARING,False,POINT (-87.7744623742247 41.7779153185307)
Gb Market Inc.,336 E 95Th St,41.721984829867,-87.6151284905998,ROSELAND,False,POINT (-87.6151284905998 41.721984829867)
Great Wall Gifts And Grocery,2806 S Wentworth Ave,41.842375576238,-87.6319361342811,ARMOUR SQUARE,False,POINT (-87.6319361342811 41.842375576238)
Exxon Mobile,5901-5911 S Morgan St,41.786867109468304,-87.6496788646231,ENGLEWOOD,False,POINT (-87.6496788646231 41.786867109468304)
Dulceria Tonito Inc.,5825 W Fullerton Ave,41.9237762278319,-87.7720055834756,BELMONT CRAGIN,False,POINT (-87.7720055834756 41.9237762278319)
Baylors Melon Market,10100 S Halsted St,41.7104642820556,-87.643072505572,WASHINGTON HEIGHTS,False,POINT (-87.643072505572 41.7104642820556)
Wish Mart,810 E 79Th St,41.7514018004748,-87.6047535513653,GREATER GRAND CROSSING,False,POINT (-87.6047535513653 41.7514018004748)
Foxtrot,1576 N Milwaukee,41.91005984346,-87.6771912342113,WEST TOWN,False,POINT (-87.6771912342113 41.91005984346)
By The Hand - Austin Harvest,423 N Laramie Ave,41.8884931104902,-87.7552161964082,AUSTIN,False,POINT (-87.7552161964082 41.8884931104902)
"Clark Super Food/Liquor,Inc",6647 N Clark St,42.003089428661,-87.672182775935,ROGERS PARK,False,POINT (-87.672182775935 42.003089428661)
Copos De Nieve,6511 N Clark St,42.0002599973305,-87.6711926364393,ROGERS PARK,False,POINT (-87.6711926364393 42.0002599973305)
A & J Food Market Incorporated,342 W 75Th St,41.7581997027466,-87.6337570627178,GREATER GRAND CROSSING,False,POINT (-87.6337570627178 41.7581997027466)
Mr G'S Food & Liquor,332-334 E 58Th St,41.789429857455296,-87.6178403397614,WASHINGTON PARK,False,POINT (-87.6178403397614 41.789429857455296)
Nakhil Palace,6014-6016 W Irving Park Rd,41.9531507978415,-87.7774325886871,PORTAGE PARK,False,POINT (-87.7774325886871 41.9531507978415)
Jay'S Food & Liquors,1636 N Cicero Ave,41.9107613335476,-87.7460530217902,AUSTIN,False,POINT (-87.7460530217902 41.9107613335476)
"Carniceria La Hacienda,No.4 Inc.",5153-5159 S Kedzie Ave,41.7992570437077,-87.7035747065583,GAGE PARK,False,POINT (-87.7035747065583 41.7992570437077)
7-Eleven #33496C,535 S State St,41.8750105731656,-87.627474631035,LOOP,False,POINT (-87.627474631035 41.8750105731656)
"Family Dollar,Llc.",6414 S Western Ave,41.7769293130968,-87.6837287152206,CHICAGO LAWN,False,POINT (-87.6837287152206 41.7769293130968)
Viet Hoa Plaza,1051 W Argyle St,41.9731740097832,-87.6569923349079,UPTOWN,False,POINT (-87.6569923349079 41.9731740097832)
Aadhya Grocery Store,3951 W Lawrence Ave,41.9681369468296,-87.7276533253596,ALBANY PARK,False,POINT (-87.7276533253596 41.9681369468296)
Wilson Grocery,928 W Wilson Ave,41.9655577007024,-87.6535592790212,UPTOWN,False,POINT (-87.6535592790212 41.9655577007024)
Happy Mart,221 W 22Nd Pl,41.8520508267127,-87.6328740340459,ARMOUR SQUARE,False,POINT (-87.6328740340459 41.8520508267127)
Levy Restaurants At Wrigley Field,1060 W Addison St,41.947317489015,-87.6564179476465,LAKE VIEW,False,POINT (-87.6564179476465 41.947317489015)
Baltimore Food & Liquor,13322-13324 S Baltimore Ave,41.6529646116936,-87.547298652826,HEGEWISCH,False,POINT (-87.547298652826 41.6529646116936)
The Market By Foxtrot,1722 W Division St,41.9033979503763,-87.6710306283901,WEST TOWN,False,POINT (-87.6710306283901 41.9033979503763)
76,6901-6915 S State St,41.7690980426566,-87.6247991398776,GREATER GRAND CROSSING,False,POINT (-87.6247991398776 41.7690980426566)
Walgreens #03395,3401 W Roosevelt Rd,41.8662377687953,-87.7106621287964,NORTH LAWNDALE,False,POINT (-87.7106621287964 41.8662377687953)
Exotic Snacks And Drinks,6560 N Sheridan Rd,42.0018424524219,-87.6609027616907,ROGERS PARK,False,POINT (-87.6609027616907 42.0018424524219)
Lucy'S Groceries & Dollar Store,4257 W Fullerton Ave Bldg,41.924288186374,-87.7339755958807,HERMOSA,False,POINT (-87.7339755958807 41.924288186374)
Tony'S Bp,1004 S Desplaines St Bldg,41.8695310893732,-87.6438815301174,NEAR WEST SIDE,False,POINT (-87.6438815301174 41.8695310893732)
"Super Crystal Market, Inc.",2639 W 63Rd St,41.7790557288601,-87.6900493508682,CHICAGO LAWN,False,POINT (-87.6900493508682 41.7790557288601)
Travel Traders #501,505 N Michigan Ave,41.891120593048896,-87.6239887043228,NEAR NORTH SIDE,False,POINT (-87.6239887043228 41.891120593048896)
Cc Stop Shop Discount,15 S Cicero Ave,41.8799670949037,-87.7451133822594,AUSTIN,False,POINT (-87.7451133822594 41.8799670949037)
Slamming Mini Mart,4300 W Fullerton Ave,41.924505271216894,-87.7341816651828,HERMOSA,False,POINT (-87.7341816651828 41.924505271216894)
R.R.K.P Inc.,175 W Jackson Blvd,41.8780144872495,-87.6331890300144,LOOP,False,POINT (-87.6331890300144 41.8780144872495)
Jad  Market,5757 W Division St,41.901964031012895,-87.7703599436784,AUSTIN,False,POINT (-87.7703599436784 41.901964031012895)
El Faro Foods,4807 W Armitage Ave,41.9168204437551,-87.7464385556138,BELMONT CRAGIN,False,POINT (-87.7464385556138 41.9168204437551)
Anytime Nutrition,6323 W Belmont Ave,41.9382315473627,-87.7844347797433,BELMONT CRAGIN,False,POINT (-87.7844347797433 41.9382315473627)
Chicago Lawn Mart #2,2904 W 63Rd St,41.7791873430049,-87.6960622799327,CHICAGO LAWN,False,POINT (-87.6960622799327 41.7791873430049)
Bp Gas,5901 S Pulaski Rd,41.7858938956352,-87.7228133505412,WEST LAWN,False,POINT (-87.7228133505412 41.7858938956352)
Ahsam Farms,6226-6230 N California Ave,41.99478751723031,-87.6996920854363,WEST RIDGE,False,POINT (-87.6996920854363 41.99478751723031)
7 Heaven Food Mart,1358 W Devon Ave,41.9982477376398,-87.6653502976931,ROGERS PARK,False,POINT (-87.6653502976931 41.9982477376398)
Carniceria Jimenez #2,3850 W Fullerton Ave,41.9246283205332,-87.7239533209841,LOGAN SQUARE,False,POINT (-87.7239533209841 41.9246283205332)
Family Dollar Store # 6772,51 E 71St St,41.7654452711157,-87.6228903172861,GREATER GRAND CROSSING,False,POINT (-87.6228903172861 41.7654452711157)
7-Eleven #32885H,2264 N Clark St,41.9236499832446,-87.6394549688955,LINCOLN PARK,False,POINT (-87.6394549688955 41.9236499832446)
Hollywood Market Place,5701 N Sheridan Rd,41.9856384210489,-87.6550943232709,EDGEWATER,False,POINT (-87.6550943232709 41.9856384210489)
Del Pharmacy-Edward Muldrow,3726 W 16Th St,41.8590450257241,-87.7186170404058,NORTH LAWNDALE,False,POINT (-87.7186170404058 41.8590450257241)
Buy Low Liquors,1628 W Lawrence Ave,41.9689770096186,-87.6706915391995,UPTOWN,False,POINT (-87.6706915391995 41.9689770096186)
It'Sugar,717 N Michigan Ave,41.8955581096264,-87.6241200636275,NEAR NORTH SIDE,False,POINT (-87.6241200636275 41.8955581096264)
Sub Station Food Mart,713 N Milwaukee,41.8946963389877,-87.652795420646,WEST TOWN,False,POINT (-87.652795420646 41.8946963389877)
Makki Mart Corp,2440 W Devon Ave,41.9978143964285,-87.6915061096369,WEST RIDGE,False,POINT (-87.6915061096369 41.9978143964285)
Nor Jumah Mubarak,2852 W Devon Ave,41.9976333355885,-87.7017660466215,WEST RIDGE,False,POINT (-87.7017660466215 41.9976333355885)
Americana Submarine,400 S Clark St,41.8768182530905,-87.6308945000089,LOOP,False,POINT (-87.6308945000089 41.8768182530905)
La Placita,1840 W 35Th St,41.8305361441811,-87.6720785647458,MCKINLEY PARK,False,POINT (-87.6720785647458 41.8305361441811)
Citgo Food Mart,4400-4412 N Cicero Ave,41.9607900227018,-87.7476893587676,PORTAGE PARK,False,POINT (-87.7476893587676 41.9607900227018)
Bobos Market Inc.,633 N Cicero Ave,41.8923180203007,-87.7455687214937,AUSTIN,False,POINT (-87.7455687214937 41.8923180203007)
"24/7 Express Mart, Inc.",5101 S Ashland Ave,41.8012290139356,-87.6646276075032,NEW CITY,False,POINT (-87.6646276075032 41.8012290139356)
Afc Sushi @ Jewel Osco#2502,2550 N Clybourn,41.9278717231183,-87.6732588146305,LINCOLN PARK,False,POINT (-87.6732588146305 41.9278717231183)
Universal Fruit Market,1940 W 51St St,41.8013512686615,-87.6736923091162,NEW CITY,False,POINT (-87.6736923091162 41.8013512686615)
Central Park Foods Inc,3604 W Grand Ave,41.9024736737817,-87.7168174652953,HUMBOLDT PARK,False,POINT (-87.7168174652953 41.9024736737817)
Cecy'S Molino De Masa,8544  -08546 S Commercial Ave,41.739684595079,-87.5516208151815,SOUTH CHICAGO,False,POINT (-87.5516208151815 41.739684595079)
Family  Dollar  #5834,1700 W 18Th St,41.8578656800393,-87.6686842195399,LOWER WEST SIDE,False,POINT (-87.6686842195399 41.8578656800393)
A-1 Food,2319 W Devon Ave,41.9976473375105,-87.6882611829126,WEST RIDGE,False,POINT (-87.6882611829126 41.9976473375105)
Tooja Food Mart,4035 W Madison St,41.8805993229434,-87.7270821455483,WEST GARFIELD PARK,False,POINT (-87.7270821455483 41.8805993229434)
Moon Star Grocery,729-733 W 69Th St,41.7687541393892,-87.6429349445092,ENGLEWOOD,False,POINT (-87.6429349445092 41.7687541393892)
Moda Food Mart,559 N Laramie Ave,41.891033547074706,-87.7553096457034,AUSTIN,False,POINT (-87.7553096457034 41.891033547074706)
7 Eleven #33726A,627 W Jackson Blvd,41.8778814739173,-87.6437510439438,NEAR WEST SIDE,False,POINT (-87.6437510439438 41.8778814739173)
Kukulu Market,6135 N Broadway,41.9933146115364,-87.6602220128638,EDGEWATER,False,POINT (-87.6602220128638 41.9933146115364)
2 P'S Smoke Shop,6609 N Clark Ave,42.002027180902,-87.6718190180475,ROGERS PARK,False,POINT (-87.6718190180475 42.002027180902)
Nutrition House,4020 N Milwaukee Ave,41.9537446482787,-87.748098721534,PORTAGE PARK,False,POINT (-87.748098721534 41.9537446482787)
El Cangrejo Guayaco Llc,4749 N Albany Ave,41.96810420178009,-87.7058715155055,ALBANY PARK,False,POINT (-87.7058715155055 41.96810420178009)
Ahm Wireless,3500 W Armitage Ave,41.9174306097448,-87.7136074460565,LOGAN SQUARE,False,POINT (-87.7136074460565 41.9174306097448)
Granville Groceries,1065 W Granville Ave,41.99446931501551,-87.6581252871824,EDGEWATER,False,POINT (-87.6581252871824 41.99446931501551)
Lucky Mini Market,523 E 79Th St,41.7510658304124,-87.6115169004373,CHATHAM,False,POINT (-87.6115169004373 41.7510658304124)
79Th Corner Store,2459 E 79Th St,41.7516532879833,-87.5638651099826,SOUTH CHICAGO,False,POINT (-87.5638651099826 41.7516532879833)
"#1 Deli, Inc",6901 S Normal Blvd,41.7688661883223,-87.6370954561606,ENGLEWOOD,False,POINT (-87.6370954561606 41.7688661883223)
Food Town One Inc.,4401 N Hazel St,41.9618584529986,-87.6521824012172,UPTOWN,False,POINT (-87.6521824012172 41.9618584529986)
"All American Spirits, Inc.",9027-9029 S Commercial Ave,41.7310758719025,-87.5511341659489,SOUTH CHICAGO,False,POINT (-87.5511341659489 41.7310758719025)
Citgo,11500 S Halsted St,41.685026256307,-87.6422973669626,WEST PULLMAN,False,POINT (-87.6422973669626 41.685026256307)
Y B Midway Inc.,4951 S Cicero Ave,41.8024688564908,-87.7428654385437,GARFIELD RIDGE,False,POINT (-87.7428654385437 41.8024688564908)
Bottom Up Accessories,1554 S Pulaski Rd,41.8590705980634,-87.7251073290427,NORTH LAWNDALE,False,POINT (-87.7251073290427 41.8590705980634)
Aaa Grocery Store,347 E 47Th St,41.8092552986699,-87.617750062702,GRAND BOULEVARD,False,POINT (-87.617750062702 41.8092552986699)
P & S Meats,7544 N Milwaukee Ave,42.0182559868936,-87.8071346712724,EDISON PARK,False,POINT (-87.8071346712724 42.0182559868936)
"M & S # 2 Food Mart, Inc.",209 S Lotus Ave,41.8780703554345,-87.7615966566269,AUSTIN,False,POINT (-87.7615966566269 41.8780703554345)
South Loop Market,8 E 9Th St,41.8706349908022,-87.6272775301213,LOOP,False,POINT (-87.6272775301213 41.8706349908022)
Cottage Fuel,7560 S Cottage Grove Ave,41.7568458985063,-87.6054946369598,GREATER GRAND CROSSING,False,POINT (-87.6054946369598 41.7568458985063)
Bubbles  Treats,8052 S Ashland Ave,41.7469722323747,-87.6634970356182,AUBURN GRESHAM,False,POINT (-87.6634970356182 41.7469722323747)
Maria'S Corner Store,3359 S Leavitt St,41.8322441734425,-87.6800730940298,MCKINLEY PARK,False,POINT (-87.6800730940298 41.8322441734425)
Los Primos Grocery,3247-3249 W Montrose Ave,41.9610557557808,-87.7101207980141,IRVING PARK,False,POINT (-87.7101207980141 41.9610557557808)
"69Th Halsted Food Mart, Inc.",6901 S Halsted St,41.7687485117751,-87.6443581820599,ENGLEWOOD,False,POINT (-87.6443581820599 41.7687485117751)
West Loop #3,1115 W Lake St Bldg,41.8854238905558,-87.6551409328106,NEAR WEST SIDE,False,POINT (-87.6551409328106 41.8854238905558)
Walgreens #04349,201 W Madison St,41.8818354659097,-87.6338973886012,LOOP,False,POINT (-87.6338973886012 41.8818354659097)
Mounsef International,4738 N Kedzie Ave,41.9677930872174,-87.7086027049243,ALBANY PARK,False,POINT (-87.7086027049243 41.9677930872174)
Rasmiah Food,4959 W Augusta Blvd,41.898523624477,-87.7506665862336,AUSTIN,False,POINT (-87.7506665862336 41.898523624477)
Dollar Tree Store #866,3232-3236 N Harlem Ave,41.9389859689403,-87.8069290647953,DUNNING,False,POINT (-87.8069290647953 41.9389859689403)
Ace Food Mart,657 E 79 St,41.7511313228583,-87.607799101113,CHATHAM,False,POINT (-87.607799101113 41.7511313228583)
Two Brothers Store,5229 W North Ave,41.9093787721337,-87.7568242819968,AUSTIN,False,POINT (-87.7568242819968 41.9093787721337)
44Th Wholesale & Retail,4351 S Cottage Grove Ave,41.8153132010372,-87.6065301950705,KENWOOD,False,POINT (-87.6065301950705 41.8153132010372)
Chitown Bodega,14 W Elm St,41.9032764144285,-87.6292143138215,NEAR NORTH SIDE,False,POINT (-87.6292143138215 41.9032764144285)
"3976 N Elston, Inc.",3976 N Elston Ave,41.9535140019699,-87.7190177666529,IRVING PARK,False,POINT (-87.7190177666529 41.9535140019699)
"Cb Mini Mart,Corp",8010 S Western Ave,41.7479522452458,-87.6829445285632,ASHBURN,False,POINT (-87.6829445285632 41.7479522452458)
Tony'S Italian Deli,6708 N Northwest Hwy,42.0028946925933,-87.8165642234573,EDISON PARK,False,POINT (-87.8165642234573 42.0028946925933)
Dollar Tree # 644,5616 W Belmont Ave,41.9386767106555,-87.7671862996302,PORTAGE PARK,False,POINT (-87.7671862996302 41.9386767106555)
Urban Grocery,729 S State St,41.8723918681968,-87.6273961222428,LOOP,False,POINT (-87.6273961222428 41.8723918681968)
Family Dollar Store # 7612,7927 S Ashland Ave,41.7495287342638,-87.6632718849561,AUBURN GRESHAM,False,POINT (-87.6632718849561 41.7495287342638)
Chicago Best Food & Tobacco,2016 W 119Th St,41.6774611032417,-87.6713556443161,MORGAN PARK,False,POINT (-87.6713556443161 41.6774611032417)
Food Town,935 E 79Th St,41.7512179339458,-87.6014014102109,CHATHAM,False,POINT (-87.6014014102109 41.7512179339458)
Rm Food Liquor,1478 W 115Th St,41.6849557983615,-87.6597258289625,MORGAN PARK,False,POINT (-87.6597258289625 41.6849557983615)
Pantry Express,9200 S Cottage Grove Ave,41.7274861824336,-87.6047514286583,CHATHAM,False,POINT (-87.6047514286583 41.7274861824336)
Cvs/Pharmacy #8519,11055 S Western Ave,41.6923615188167,-87.6810264382244,MORGAN PARK,False,POINT (-87.6810264382244 41.6923615188167)
Noor Food Market,2761 W Lake St,41.8841379872349,-87.6963038897002,EAST GARFIELD PARK,False,POINT (-87.6963038897002 41.8841379872349)
Family Dollar #33741,8240 S Stony Island Ave,41.7447976090885,-87.5859542547092,AVALON PARK,False,POINT (-87.5859542547092 41.7447976090885)
7-Eleven #13314 F,10301 S Sawyer Ave,41.7060831053384,-87.7024021269117,MOUNT GREENWOOD,False,POINT (-87.7024021269117 41.7060831053384)
Smart Stop,4710 N Milwaukee Ave,41.9658348523108,-87.7591626837569,PORTAGE PARK,False,POINT (-87.7591626837569 41.9658348523108)
Grand Beer Wine Spirits,1142 W Grand Ave,41.8912017603319,-87.6562947219871,WEST TOWN,False,POINT (-87.6562947219871 41.8912017603319)
7-Eleven #16809,5959 W Belmont Ave,41.9383392119156,-87.7761513868968,BELMONT CRAGIN,False,POINT (-87.7761513868968 41.9383392119156)
Laxi Liquor,6922 W Grand Ave,41.9236807002974,-87.7986761286356,MONTCLARE,False,POINT (-87.7986761286356 41.9236807002974)
290 Quick Mart & Tobacco,5146 W Madison St,41.8804890893664,-87.7545128809254,AUSTIN,False,POINT (-87.7545128809254 41.8804890893664)
Central Supermarket,1325 N Central Ave,41.9048103582016,-87.7656035598987,AUSTIN,False,POINT (-87.7656035598987 41.9048103582016)
Express Dollar,7029 N Clark St,42.0099156134617,-87.6740256476211,ROGERS PARK,False,POINT (-87.6740256476211 42.0099156134617)
Adam Foods Mini Mart Inc,1438 W 103Rd St,41.7068545331481,-87.6588017164781,BEVERLY,False,POINT (-87.6588017164781 41.7068545331481)
Vom Fass,4755 N Lincoln Ave,41.9681025378943,-87.688073118404,LINCOLN SQUARE,False,POINT (-87.688073118404 41.9681025378943)
Hamlin Citgo,3759 W Chicago Ave,41.8953038463814,-87.7211291035935,HUMBOLDT PARK,False,POINT (-87.7211291035935 41.8953038463814)
Circle K,1605 N Western Ave,41.9105187439745,-87.6870793429164,WEST TOWN,False,POINT (-87.6870793429164 41.9105187439745)
Now Luck Llc,3448 W Foster Ave,41.9757790875264,-87.7155402470304,NORTH PARK,False,POINT (-87.7155402470304 41.9757790875264)
"Belmont Haus, Llc",3008 W Belmont Ave,41.9394713843458,-87.7031020283674,AVONDALE,False,POINT (-87.7031020283674 41.9394713843458)
Candyality,3737 N Southport,41.94996659511,-87.6639500749903,LAKE VIEW,False,POINT (-87.6639500749903 41.94996659511)
Ray'S Grocery And Tobacco,2125 N Central Park Ave,41.9199856977537,-87.7167076808918,LOGAN SQUARE,False,POINT (-87.7167076808918 41.9199856977537)
Hudson Nonstop,10000 W Ohare St,41.9762011390239,-87.9053091251035,OHARE,False,POINT (-87.9053091251035 41.9762011390239)
The Warehouse,538 W 119Th St,41.6779860017284,-87.6362008551344,WEST PULLMAN,False,POINT (-87.6362008551344 41.6779860017284)
Sami Boy 2,3730 W Division St,41.9028321134033,-87.7202778317596,HUMBOLDT PARK,False,POINT (-87.7202778317596 41.9028321134033)
Kean Bros Inc,2632 W 111Th St,41.6918362855765,-87.6873644819736,MORGAN PARK,False,POINT (-87.6873644819736 41.6918362855765)
"Ez Food Mart On 111, Inc.",1101 W 111Th St,41.692157238737,-87.6497962534594,MORGAN PARK,False,POINT (-87.6497962534594 41.692157238737)
"Main Street Food 103, Inc.",10302 S Halsted St,41.7067667936772,-87.6429756437984,WASHINGTON HEIGHTS,False,POINT (-87.6429756437984 41.7067667936772)
Family Dollar Store  #6594,90 E 103Rd St,41.7073228814004,-87.6203185677406,ROSELAND,False,POINT (-87.6203185677406 41.7073228814004)
Mobile Gas,6655-6659 S Kedzie Ave,41.7718438797926,-87.7028254317363,CHICAGO LAWN,False,POINT (-87.7028254317363 41.7718438797926)
"Convenience Junction, Inc.",200 S Wacker Dr,41.879283639964,-87.6371007044378,LOOP,False,POINT (-87.6371007044378 41.879283639964)
Amoco,2340 W 52Nd St,41.7989375363715,-87.6835163823689,GAGE PARK,False,POINT (-87.6835163823689 41.7989375363715)
Farah Supermarket,2858 W Roosevelt Rd,41.8665916096202,-87.6982871618974,NORTH LAWNDALE,False,POINT (-87.6982871618974 41.8665916096202)
Dollar Tree Stores #08833,6355 W Belmont Ave,41.9382133988163,-87.7856085235934,BELMONT CRAGIN,False,POINT (-87.7856085235934 41.9382133988163)
7-Eleven #32930B,6801 N Western Ave,42.005080073904494,-87.6899247445087,WEST RIDGE,False,POINT (-87.6899247445087 42.005080073904494)
Gateway News Stand,161 N Clark St,41.8847797046264,-87.6308006674863,LOOP,False,POINT (-87.6308006674863 41.8847797046264)
Aida Food & Liquor,7923 S Halsted St,41.749931458226094,-87.643877125327,AUBURN GRESHAM,False,POINT (-87.643877125327 41.749931458226094)
Go! Grocer,2930 N Sheridan Rd,41.9352934991878,-87.639535461576,LAKE VIEW,False,POINT (-87.639535461576 41.9352934991878)
Candyland Warehouse,7105-7109 S State St,41.7652876014804,-87.6247547504987,GREATER GRAND CROSSING,False,POINT (-87.6247547504987 41.7652876014804)
Peoria Packing Ltd,1300 W Lake St,41.885580420009,-87.6589569107522,NEAR WEST SIDE,False,POINT (-87.6589569107522 41.885580420009)
Citgo,8903 S South Chicago Ave,41.733646449027,-87.5605530337763,SOUTH CHICAGO,False,POINT (-87.5605530337763 41.733646449027)
"North Ave Retails, Llc",4317 W North Ave,41.909668990319,-87.7345224450444,HUMBOLDT PARK,False,POINT (-87.7345224450444 41.909668990319)
7- Eleven #33734J,1508 N Damen Ave,41.9085444309084,-87.677556941453,WEST TOWN,False,POINT (-87.677556941453 41.9085444309084)
Cloud High Smoke Shop,5460 S Kedzie Ave,41.7935566755863,-87.7037023212815,GAGE PARK,False,POINT (-87.7037023212815 41.7935566755863)
Nayab Mart,2449 W Devon Ave,41.997589124403504,-87.6918369147709,WEST RIDGE,False,POINT (-87.6918369147709 41.997589124403504)
7-Eleven,3201 S State St,41.836371827384895,-87.6263807898422,DOUGLAS,False,POINT (-87.6263807898422 41.836371827384895)
Gopuff,1347 S Ashland Ave,41.863691227493106,-87.6661585059797,NEAR WEST SIDE,False,POINT (-87.6661585059797 41.863691227493106)
Whimsical Candy,175 N Franklin St,41.8852107266755,-87.6352512095139,LOOP,False,POINT (-87.6352512095139 41.8852107266755)
Supply 4 Less,3750 W Chicago Ave,41.89552669968511,-87.720795748723,HUMBOLDT PARK,False,POINT (-87.720795748723 41.89552669968511)
J.J. Peppers Food,3555 N Central Ave,41.9457165630522,-87.7666032976111,PORTAGE PARK,False,POINT (-87.7666032976111 41.9457165630522)
Miska Liquors,8227 W Irving Park Rd,41.9520237151541,-87.8329590479249,DUNNING,False,POINT (-87.8329590479249 41.9520237151541)
Bristol Food & Liquor,5201-5207 W Belmont Ave,41.9385891862201,-87.7568100451691,BELMONT CRAGIN,False,POINT (-87.7568100451691 41.9385891862201)
Mj Tobacco & Food Mart Inc.,3925 W Chicago Ave,41.895268077120704,-87.7248002322689,HUMBOLDT PARK,False,POINT (-87.7248002322689 41.895268077120704)
Go! Grocer,1015-1017 W Armitage Ave,41.9179846081892,-87.6540628979176,LINCOLN PARK,False,POINT (-87.6540628979176 41.9179846081892)
In & Out Food Mart,401 N Laramie Ave,41.887869064154,-87.7551926358169,AUSTIN,False,POINT (-87.7551926358169 41.887869064154)
7-Eleven #33875B,1349 W Fullerton Ave,41.9251207416313,-87.662477152592,LINCOLN PARK,False,POINT (-87.662477152592 41.9251207416313)
Chokshi & Associates Inc.,180 N La Salle St,41.8854443881431,-87.6325821348462,LOOP,False,POINT (-87.6325821348462 41.8854443881431)
7-Eleven #41810H,5037 W Lawrence Ave,41.9678379010959,-87.7541273536404,PORTAGE PARK,False,POINT (-87.7541273536404 41.9678379010959)
7-Eleven #13542L,10759 S Ewing Ave,41.6991936006264,-87.5351347557681,EAST SIDE,False,POINT (-87.5351347557681 41.6991936006264)
7-Eleven #33067 C,5316 N Milwaukee Ave,41.9769368876967,-87.7690743119701,JEFFERSON PARK,False,POINT (-87.7690743119701 41.9769368876967)
Belmont & Major Mart,3206 N Major Ave,41.9387758414226,-87.7690866706695,PORTAGE PARK,False,POINT (-87.7690866706695 41.9387758414226)
